fips,county_name,state,land_area_sqmi,lat,lon,state_fips,state_name
01001,Autauga County,AL,594.455,32.532237,-86.64644,01,Alabama
01003,Baldwin County,AL,1589.884,30.659218,-87.746067,01,Alabama
01005,Barbour County,AL,885.008,31.870253,-85.405104,01,Alabama
01007,Bibb County,AL,622.47,33.015893,-87.127148,01,Alabama
01009,Blount County,AL,644.891,33.977358,-86.56644,01,Alabama
01011,Bullock County,AL,622.815,32.101759,-85.717261,01,Alabama
01013,Butler County,AL,776.839,31.751667,-86.681969,01,Alabama
01015,Calhoun County,AL,605.893,33.770516,-85.827909,01,Alabama
01017,Chambers County,AL,596.554,32.915504,-85.394032,01,Alabama
01019,Cherokee County,AL,553.522,34.069515,-85.654242,01,Alabama
01021,Chilton County,AL,692.838,32.854051,-86.726607,01,Alabama
01023,Choctaw County,AL,913.479,31.990954,-88.248889,01,Alabama
01025,Clarke County,AL,1238.42,31.685521,-87.818624,01,Alabama
01027,Clay County,AL,603.962,33.2704,-85.863525,01,Alabama
01029,Cleburne County,AL,560.107,33.671964,-85.516126,01,Alabama
01031,Coffee County,AL,678.986,31.402258,-85.989602,01,Alabama
01033,Colbert County,AL,592.953,34.703112,-87.801457,01,Alabama
01035,Conecuh County,AL,850.279,31.430926,-86.988722,01,Alabama
01037,Coosa County,AL,650.909,32.931445,-86.243482,01,Alabama
01039,Covington County,AL,1030.571,31.243987,-86.448721,01,Alabama
01041,Crenshaw County,AL,608.865,31.730311,-86.320038,01,Alabama
01043,Cullman County,AL,734.747,34.131923,-86.869267,01,Alabama
01045,Dale County,AL,561.113,31.430654,-85.609476,01,Alabama
01047,Dallas County,AL,978.738,32.333526,-87.11436,01,Alabama
01049,DeKalb County,AL,777.077,34.460915,-85.804021,01,Alabama
01051,Elmore County,AL,618.52,32.597229,-86.142735,01,Alabama
01053,Escambia County,AL,945.408,31.122287,-87.16841,01,Alabama
01055,Etowah County,AL,535.144,34.047641,-86.034263,01,Alabama
01057,Fayette County,AL,627.684,33.716157,-87.764292,01,Alabama
01059,Franklin County,AL,633.959,34.441989,-87.842814,01,Alabama
01061,Geneva County,AL,574.485,31.092382,-85.821022,01,Alabama
01063,Greene County,AL,647.023,32.844497,-87.9642,01,Alabama
01065,Hale County,AL,643.991,32.752796,-87.623061,01,Alabama
01067,Henry County,AL,561.892,31.516978,-85.239971,01,Alabama
01069,Houston County,AL,579.826,31.158183,-85.296411,01,Alabama
01071,Jackson County,AL,1078.014,34.764114,-85.980056,01,Alabama
01073,Jefferson County,AL,1111.556,33.553444,-86.896536,01,Alabama
01075,Lamar County,AL,604.846,33.787085,-88.087431,01,Alabama
01077,Lauderdale County,AL,668.018,34.904168,-87.651108,01,Alabama
01079,Lawrence County,AL,690.685,34.529776,-87.321865,01,Alabama
01081,Lee County,AL,607.556,32.604064,-85.353048,01,Alabama
01083,Limestone County,AL,563.399,34.810239,-86.981399,01,Alabama
01085,Lowndes County,AL,716.085,32.147888,-86.650586,01,Alabama
01087,Macon County,AL,608.665,32.387027,-85.692887,01,Alabama
01089,Madison County,AL,801.612,34.764238,-86.55108,01,Alabama
01091,Marengo County,AL,976.898,32.247591,-87.791091,01,Alabama
01093,Marion County,AL,742.342,34.138219,-87.881551,01,Alabama
01095,Marshall County,AL,565.854,34.309564,-86.321668,01,Alabama
01097,Mobile County,AL,1229.38,30.684572,-88.196568,01,Alabama
01099,Monroe County,AL,1025.669,31.580353,-87.383342,01,Alabama
01101,Montgomery County,AL,785.354,32.202881,-86.204461,01,Alabama
01103,Morgan County,AL,579.674,34.454484,-86.846402,01,Alabama
01105,Perry County,AL,719.67,32.639005,-87.293827,01,Alabama
01107,Pickens County,AL,881.408,33.2968,-88.096864,01,Alabama
01109,Pike County,AL,672.067,31.798653,-85.941608,01,Alabama
01111,Randolph County,AL,580.55,33.296461,-85.464064,01,Alabama
01113,Russell County,AL,641.182,32.289811,-85.18698,01,Alabama
01115,St. Clair County,AL,631.61,33.719491,-86.311327,01,Alabama
01117,Shelby County,AL,785.454,33.266893,-86.661007,01,Alabama
01119,Sumter County,AL,903.826,32.597481,-88.200057,01,Alabama
01121,Talladega County,AL,736.818,33.369314,-86.17593,01,Alabama
01123,Tallapoosa County,AL,716.531,32.863308,-85.799618,01,Alabama
01125,Tuscaloosa County,AL,1320.857,33.29022,-87.522783,01,Alabama
01127,Walker County,AL,791.031,33.791558,-87.301094,01,Alabama
01129,Washington County,AL,1080.255,31.408503,-88.212404,01,Alabama
01131,Wilcox County,AL,887.858,31.990082,-87.304935,01,Alabama
01133,Winston County,AL,612.999,34.154566,-87.365346,01,Alabama
02013,Aleutians East Borough,AK,6986.254,55.245044,-161.997477,02,Alaska
02016,Aleutians West Census Area,AK,4393.051,51.948964,179.621188,02,Alaska
02020,Anchorage Municipality,AK,1707.069,61.17425,-149.284329,02,Alaska
02050,Bethel Census Area,AK,40660.586,60.929141,-160.152625,02,Alaska
02060,Bristol Bay Borough,AK,481.382,58.730546,-156.994473,02,Alaska
02063,Chugach Census Area,AK,9575.39,60.488474,-146.203092,02,Alaska
02066,Copper River Census Area,AK,24646.759,62.034479,-143.922167,02,Alaska
02068,Denali Borough,AK,12641.049,63.682039,-150.027016,02,Alaska
02070,Dillingham Census Area,AK,18335.796,59.543326,-158.267123,02,Alaska
02090,Fairbanks North Star Borough,AK,7334.824,64.670454,-146.496061,02,Alaska
02100,Haines Borough,AK,2334.932,59.098404,-135.575791,02,Alaska
02105,Hoonah-Angoon Census Area,AK,6560.319,58.403336,-135.884909,02,Alaska
02110,Juneau City and Borough,AK,2702.924,58.37291,-134.178445,02,Alaska
02122,Kenai Peninsula Borough,AK,16017.581,60.366668,-152.322283,02,Alaska
02130,Ketchikan Gateway Borough,AK,4857.091,55.449938,-131.106685,02,Alaska
02150,Kodiak Island Borough,AK,6689.486,57.7044,-153.918372,02,Alaska
02158,Kusilvak Census Area,AK,17077.965,62.283588,-163.190171,02,Alaska
02164,Lake and Peninsula Borough,AK,23831.019,58.108507,-156.413413,02,Alaska
02170,Matanuska-Susitna Borough,AK,24707.334,62.265626,-149.503993,02,Alaska
02180,Nome Census Area,AK,22969.694,64.783686,-164.188912,02,Alaska
02185,North Slope Borough,AK,88792.798,69.449343,-153.47283,02,Alaska
02188,Northwest Arctic Borough,AK,35671.697,67.005066,-160.021086,02,Alaska
02195,Petersburg Borough,AK,2900.889,57.112458,-133.008598,02,Alaska
02198,Prince of Wales-Hyder Census Area,AK,5267.636,55.682773,-133.162389,02,Alaska
02220,Sitka City and Borough,AK,2870.101,57.193204,-135.367396,02,Alaska
02230,Skagway Municipality,AK,442.928,59.560379,-135.338279,02,Alaska
02240,Southeast Fairbanks Census Area,AK,24832.27,63.864997,-143.218628,02,Alaska
02275,Wrangell City and Borough,AK,2556.097,56.180779,-132.026788,02,Alaska
02282,Yakutat City and Borough,AK,7627.587,60.017508,-140.416847,02,Alaska
02290,Yukon-Koyukuk Census Area,AK,145769.125,65.375656,-151.578176,02,Alaska
04001,Apache County,AZ,11198.31,35.385084,-109.490172,04,Arizona
04003,Cochise County,AZ,6209.863,31.840129,-109.775163,04,Arizona
04005,Coconino County,AZ,18616.352,35.829692,-111.773728,04,Arizona
04007,Gila County,AZ,4757.578,33.789618,-110.81187,04,Arizona
04009,Graham County,AZ,4621.877,32.931828,-109.87831,04,Arizona
04011,Greenlee County,AZ,1842.838,33.238872,-109.242323,04,Arizona
04012,La Paz County,AZ,4496.579,33.72761,-114.038806,04,Arizona
04013,Maricopa County,AZ,9202.016,33.345176,-112.49893,04,Arizona
04015,Mohave County,AZ,13332.117,35.717705,-113.749689,04,Arizona
04017,Navajo County,AZ,9949.496,35.390785,-110.321025,04,Arizona
04019,Pima County,AZ,9188.683,32.128038,-111.783657,04,Arizona
04021,Pinal County,AZ,5366.677,32.918521,-111.366339,04,Arizona
04023,Santa Cruz County,AZ,1236.26,31.525733,-110.845228,04,Arizona
04025,Yavapai County,AZ,8122.932,34.631071,-112.577225,04,Arizona
04027,Yuma County,AZ,5513.82,32.773942,-113.910905,04,Arizona
05001,Arkansas County,AR,992.14,34.28957,-91.376547,05,Arkansas
05003,Ashley County,AR,925.492,33.190835,-91.772267,05,Arkansas
05005,Baxter County,AR,553.931,36.280268,-92.329949,05,Arkansas
05007,Benton County,AR,847.733,36.337819,-94.256298,05,Arkansas
05009,Boone County,AR,589.723,36.304299,-93.079236,05,Arkansas
05011,Bradley County,AR,649.167,33.466549,-92.169156,05,Arkansas
05013,Calhoun County,AR,628.601,33.56046,-92.513879,05,Arkansas
05015,Carroll County,AR,629.928,36.33737,-93.540972,05,Arkansas
05017,Chicot County,AR,636.978,33.267139,-91.297158,05,Arkansas
05019,Clark County,AR,865.971,34.053316,-93.176208,05,Arkansas
05021,Clay County,AR,639.224,36.367302,-90.418704,05,Arkansas
05023,Cleburne County,AR,553.959,35.593628,-92.008898,05,Arkansas
05025,Cleveland County,AR,597.91,33.893201,-92.188714,05,Arkansas
05027,Columbia County,AR,766.065,33.223038,-93.232843,05,Arkansas
05029,Conway County,AR,551.924,35.26569,-92.689249,05,Arkansas
05031,Craighead County,AR,707.166,35.827729,-90.631421,05,Arkansas
05033,Crawford County,AR,595.269,35.582959,-94.236193,05,Arkansas
05035,Crittenden County,AR,611.812,35.197559,-90.30512,05,Arkansas
05037,Cross County,AR,616.318,35.285692,-90.763984,05,Arkansas
05039,Dallas County,AR,667.323,33.967823,-92.653999,05,Arkansas
05041,Desha County,AR,741.227,33.828752,-91.244103,05,Arkansas
05043,Drew County,AR,828.667,33.587242,-91.722778,05,Arkansas
05045,Faulkner County,AR,647.247,35.146548,-92.336928,05,Arkansas
05047,Franklin County,AR,608.967,35.508558,-93.887665,05,Arkansas
05049,Fulton County,AR,617.994,36.381322,-91.819285,05,Arkansas
05051,Garland County,AR,677.615,34.578852,-93.146932,05,Arkansas
05053,Grant County,AR,631.888,34.285568,-92.422979,05,Arkansas
05055,Greene County,AR,577.34,36.120607,-90.566346,05,Arkansas
05057,Hempstead County,AR,727.2,33.735953,-93.664355,05,Arkansas
05059,Hot Spring County,AR,614.944,34.315177,-92.944147,05,Arkansas
05061,Howard County,AR,587.332,34.083064,-93.990931,05,Arkansas
05063,Independence County,AR,763.712,35.737499,-91.559942,05,Arkansas
05065,Izard County,AR,580.201,36.094879,-91.913625,05,Arkansas
05067,Jackson County,AR,633.611,35.596467,-91.223205,05,Arkansas
05069,Jefferson County,AR,872.346,34.277239,-91.929673,05,Arkansas
05071,Johnson County,AR,660.99,35.573359,-93.466322,05,Arkansas
05073,Lafayette County,AR,529.472,33.240629,-93.611514,05,Arkansas
05075,Lawrence County,AR,587.528,36.041098,-91.101153,05,Arkansas
05077,Lee County,AR,599.807,34.779505,-90.779717,05,Arkansas
05079,Lincoln County,AR,559.466,33.956385,-91.742355,05,Arkansas
05081,Little River County,AR,531.255,33.701941,-94.236287,05,Arkansas
05083,Logan County,AR,709.115,35.218654,-93.72091,05,Arkansas
05085,Lonoke County,AR,771.723,34.755114,-91.894132,05,Arkansas
05087,Madison County,AR,834.238,36.012545,-93.724053,05,Arkansas
05089,Marion County,AR,596.598,36.266664,-92.678577,05,Arkansas
05091,Miller County,AR,624.04,33.305505,-93.901502,05,Arkansas
05093,Mississippi County,AR,902.093,35.766944,-90.052207,05,Arkansas
05095,Monroe County,AR,607.461,34.679512,-91.20331,05,Arkansas
05097,Montgomery County,AR,780.453,34.545656,-93.664153,05,Arkansas
05099,Nevada County,AR,617.79,33.666699,-93.305072,05,Arkansas
05101,Newton County,AR,821.076,35.910742,-93.215898,05,Arkansas
05103,Ouachita County,AR,732.721,33.591168,-92.878413,05,Arkansas
05105,Perry County,AR,551.336,34.946363,-92.926877,05,Arkansas
05107,Phillips County,AR,690.36,34.423687,-90.855593,05,Arkansas
05109,Pike County,AR,600.335,34.158191,-93.658659,05,Arkansas
05111,Poinsett County,AR,758.295,35.56887,-90.681104,05,Arkansas
05113,Polk County,AR,856.838,34.49096,-94.230894,05,Arkansas
05115,Pope County,AR,810.952,35.456557,-93.026818,05,Arkansas
05117,Prairie County,AR,647.516,34.831116,-91.55362,05,Arkansas
05119,Pulaski County,AR,758.369,34.770311,-92.312996,05,Arkansas
05121,Randolph County,AR,651.913,36.341298,-91.028441,05,Arkansas
05123,St. Francis County,AR,634.784,35.022838,-90.751506,05,Arkansas
05125,Saline County,AR,723.516,34.648525,-92.674463,05,Arkansas
05127,Scott County,AR,892.85,34.858869,-94.063641,05,Arkansas
05129,Searcy County,AR,665.879,35.896387,-92.695888,05,Arkansas
05131,Sebastian County,AR,531.184,35.196981,-94.274989,05,Arkansas
05133,Sevier County,AR,563.569,33.994877,-94.243279,05,Arkansas
05135,Sharp County,AR,604.637,36.173399,-91.471069,05,Arkansas
05137,Stone County,AR,606.44,35.857001,-92.140482,05,Arkansas
05139,Union County,AR,1039.067,33.168219,-92.598145,05,Arkansas
05141,Van Buren County,AR,709.571,35.582953,-92.515976,05,Arkansas
05143,Washington County,AR,941.463,35.978001,-94.217269,05,Arkansas
05145,White County,AR,1033.966,35.255118,-91.753034,05,Arkansas
05147,Woodruff County,AR,585.973,35.192777,-91.244535,05,Arkansas
05149,Yell County,AR,930.386,34.997713,-93.408303,05,Arkansas
06001,Alameda County,CA,737.459,37.647139,-121.912488,06,California
06003,Alpine County,CA,738.34,38.621783,-119.798352,06,California
06005,Amador County,CA,594.585,38.443549,-120.653858,06,California
06007,Butte County,CA,1636.512,39.665336,-121.603209,06,California
06009,Calaveras County,CA,1020.016,38.191068,-120.554107,06,California
06011,Colusa County,CA,1150.679,39.177739,-122.237563,06,California
06013,Contra Costa County,CA,716.897,37.919479,-121.951543,06,California
06015,Del Norte County,CA,1006.202,41.749903,-123.980998,06,California
06017,El Dorado County,CA,1707.841,38.785612,-120.534225,06,California
06019,Fresno County,CA,5958.582,36.761006,-119.655019,06,California
06021,Glenn County,CA,1313.976,39.602546,-122.4017,06,California
06023,Humboldt County,CA,3568.024,40.706655,-123.926176,06,California
06025,Imperial County,CA,4175.528,33.040814,-115.3554,06,California
06027,Inyo County,CA,10197.261,36.56216,-117.404209,06,California
06029,Kern County,CA,8134.673,35.346629,-118.729506,06,California
06031,Kings County,CA,1390.972,36.072478,-119.81553,06,California
06033,Lake County,CA,1255.1,39.108009,-122.745217,06,California
06035,Lassen County,CA,4541.369,40.715287,-120.621223,06,California
06037,Los Angeles County,CA,4060.254,34.196398,-118.261862,06,California
06039,Madera County,CA,2136.709,37.209821,-119.749802,06,California
06041,Marin County,CA,520.141,38.051367,-122.746396,06,California
06043,Mariposa County,CA,1448.84,37.574343,-119.911721,06,California
06045,Mendocino County,CA,3506.807,39.432388,-123.442881,06,California
06047,Merced County,CA,1938.004,37.194806,-120.722802,06,California
06049,Modoc County,CA,3948.233,41.592918,-120.71837,06,California
06051,Mono County,CA,3048.904,37.915836,-118.875167,06,California
06053,Monterey County,CA,3281.718,36.240104,-121.315578,06,California
06055,Napa County,CA,751.975,38.5071,-122.325904,06,California
06057,Nevada County,CA,957.76,39.297508,-120.771343,06,California
06059,Orange County,CA,792.867,33.675687,-117.777207,06,California
06061,Placer County,CA,1407.073,39.062032,-120.722718,06,California
06063,Plumas County,CA,2553.062,39.992295,-120.824371,06,California
06065,Riverside County,CA,7209.254,33.729828,-116.002239,06,California
06067,Sacramento County,CA,965.28,38.450136,-121.344329,06,California
06069,San Benito County,CA,1388.652,36.611651,-121.085811,06,California
06071,San Bernardino County,CA,20068.167,34.856661,-116.181571,06,California
06073,San Diego County,CA,4210.462,33.023604,-116.776117,06,California
06075,San Francisco County,CA,46.685,37.727239,-123.032229,06,California
06077,San Joaquin County,CA,1392.238,37.934982,-121.272244,06,California
06079,San Luis Obispo County,CA,3300.842,35.388189,-120.448897,06,California
06081,San Mateo County,CA,448.62,37.414672,-122.371546,06,California
06083,Santa Barbara County,CA,2733.941,34.536677,-120.038364,06,California
06085,Santa Clara County,CA,1291.084,37.221614,-121.68954,06,California
06087,Santa Cruz County,CA,445.106,37.012347,-122.007789,06,California
06089,Shasta County,CA,3775.651,40.760514,-122.043556,06,California
06091,Sierra County,CA,953.168,39.576925,-120.521993,06,California
06093,Siskiyou County,CA,6278.767,41.587986,-122.533287,06,California
06095,Solano County,CA,821.736,38.267226,-121.939594,06,California
06097,Sonoma County,CA,1575.337,38.525182,-122.92611,06,California
06099,Stanislaus County,CA,1496.15,37.562316,-121.002831,06,California
06101,Sutter County,CA,602.696,39.03619,-121.70394,06,California
06103,Tehama County,CA,2949.137,40.126157,-122.232274,06,California
06105,Trinity County,CA,3179.268,40.647858,-123.114666,06,California
06107,Tulare County,CA,4823.9,36.228834,-118.781055,06,California
06109,Tuolumne County,CA,2220.912,38.021434,-119.964733,06,California
06111,Ventura County,CA,1840.78,34.358748,-119.133145,06,California
06113,Yolo County,CA,1012.988,38.679609,-121.90275,06,California
06115,Yuba County,CA,632.006,39.27013,-121.344259,06,California
08001,Adams County,CO,1166.792,39.874325,-104.331872,08,Colorado
08003,Alamosa County,CO,722.645,37.568442,-105.788041,08,Colorado
08005,Arapahoe County,CO,797.887,39.644554,-104.331706,08,Colorado
08007,Archuleta County,CO,1350.088,37.202395,-107.050863,08,Colorado
08009,Baca County,CO,2554.993,37.30978,-102.543741,08,Colorado
08011,Bent County,CO,1512.847,37.931891,-103.077584,08,Colorado
08013,Boulder County,CO,726.408,40.094971,-105.39771,08,Colorado
08014,Broomfield County,CO,32.968,39.953593,-105.050787,08,Colorado
08015,Chaffee County,CO,1013.408,38.734599,-106.300025,08,Colorado
08017,Cheyenne County,CO,1778.276,38.835646,-102.601791,08,Colorado
08019,Clear Creek County,CO,395.073,39.689403,-105.670783,08,Colorado
08021,Conejos County,CO,1287.428,37.213406,-106.176447,08,Colorado
08023,Costilla County,CO,1227.593,37.277547,-105.42894,08,Colorado
08025,Crowley County,CO,787.428,38.30618,-103.772736,08,Colorado
08027,Custer County,CO,738.626,38.101996,-105.373512,08,Colorado
08029,Delta County,CO,1142.125,38.861423,-107.865043,08,Colorado
08031,Denver County,CO,153.074,39.76185,-104.881105,08,Colorado
08033,Dolores County,CO,1067.17,37.733823,-108.506219,08,Colorado
08035,Douglas County,CO,840.888,39.325414,-104.925987,08,Colorado
08037,Eagle County,CO,1684.47,39.626992,-106.695169,08,Colorado
08039,Elbert County,CO,1850.086,39.315157,-104.114076,08,Colorado
08041,El Paso County,CO,2126.416,38.827383,-104.527472,08,Colorado
08043,Fremont County,CO,1533.835,38.45517,-105.424958,08,Colorado
08045,Garfield County,CO,2947.425,39.599352,-107.90978,08,Colorado
08047,Gilpin County,CO,150.023,39.861156,-105.528878,08,Colorado
08049,Grand County,CO,1846.447,40.113065,-106.110837,08,Colorado
08051,Gunnison County,CO,3239.14,38.670499,-107.05688,08,Colorado
08053,Hinsdale County,CO,1117.231,37.811519,-107.383974,08,Colorado
08055,Huerfano County,CO,1591.033,37.687815,-104.959928,08,Colorado
08057,Jackson County,CO,1613.726,40.663432,-106.329248,08,Colorado
08059,Jefferson County,CO,764.39,39.579511,-105.245462,08,Colorado
08061,Kiowa County,CO,1767.809,38.387663,-102.756849,08,Colorado
08063,Kit Carson County,CO,2160.822,39.30534,-102.603023,08,Colorado
08065,Lake County,CO,376.919,39.205341,-106.350079,08,Colorado
08067,La Plata County,CO,1689.682,37.287367,-107.839718,08,Colorado
08069,Larimer County,CO,2595.746,40.658093,-105.486764,08,Colorado
08071,Las Animas County,CO,4772.938,37.318831,-104.04411,08,Colorado
08073,Lincoln County,CO,2577.73,38.99374,-103.507555,08,Colorado
08075,Logan County,CO,1838.599,40.728091,-103.090464,08,Colorado
08077,Mesa County,CO,3328.721,39.019524,-108.460571,08,Colorado
08079,Mineral County,CO,875.76,37.549069,-107.003235,08,Colorado
08081,Moffat County,CO,4743.244,40.610864,-108.217154,08,Colorado
08083,Montezuma County,CO,2029.349,37.338025,-108.595786,08,Colorado
08085,Montrose County,CO,2240.946,38.407507,-108.266282,08,Colorado
08087,Morgan County,CO,1280.485,40.263159,-103.81221,08,Colorado
08089,Otero County,CO,1261.946,37.88417,-103.72126,08,Colorado
08091,Ouray County,CO,540.671,38.154731,-107.78848,08,Colorado
08093,Park County,CO,2193.51,39.118914,-105.717648,08,Colorado
08095,Phillips County,CO,687.928,40.594712,-102.345105,08,Colorado
08097,Pitkin County,CO,970.701,39.217541,-106.916162,08,Colorado
08099,Prowers County,CO,1638.407,37.958443,-102.391754,08,Colorado
08101,Pueblo County,CO,2386.591,38.162765,-104.484668,08,Colorado
08103,Rio Blanco County,CO,3220.971,39.972622,-108.200716,08,Colorado
08105,Rio Grande County,CO,911.956,37.485853,-106.453128,08,Colorado
08107,Routt County,CO,2362.02,40.483664,-106.987702,08,Colorado
08109,Saguache County,CO,3168.566,38.031651,-106.234666,08,Colorado
08111,San Juan County,CO,387.516,37.781049,-107.670257,08,Colorado
08113,San Miguel County,CO,1286.725,38.009319,-108.427263,08,Colorado
08115,Sedgwick County,CO,548.041,40.871568,-102.355358,08,Colorado
08117,Summit County,CO,608.328,39.621023,-106.137555,08,Colorado
08119,Teller County,CO,557.141,38.869976,-105.187365,08,Colorado
08121,Washington County,CO,2518.084,39.96579,-103.209744,08,Colorado
08123,Weld County,CO,3984.958,40.555961,-104.383666,08,Colorado
08125,Yuma County,CO,2364.399,40.00077,-102.421649,08,Colorado
09110,Capitol Planning Region,CT,1027.354,41.81697,-72.575886,09,Connecticut
09120,Greater Bridgeport Planning Region,CT,140.181,41.184558,-73.209401,09,Connecticut
09130,Lower Connecticut River Valley Planning Region,CT,424.117,41.420307,-72.493525,09,Connecticut
09140,Naugatuck Valley Planning Region,CT,412.784,41.518931,-73.087906,09,Connecticut
09150,Northeastern Connecticut Planning Region,CT,553.895,41.842375,-71.972655,09,Connecticut
09160,Northwest Hills Planning Region,CT,786.642,41.854809,-73.221494,09,Connecticut
09170,South Central Connecticut Planning Region,CT,367.252,41.290167,-72.837024,09,Connecticut
09180,Southeastern Connecticut Planning Region,CT,598.139,41.484769,-72.101666,09,Connecticut
09190,Western Connecticut Planning Region,CT,532.129,41.279055,-73.44655,09,Connecticut
10001,Kent County,DE,586.061,39.097088,-75.502982,10,Delaware
10003,New Castle County,DE,426.338,39.575915,-75.644132,10,Delaware
10005,Sussex County,DE,936.14,38.673227,-75.337024,10,Delaware
11001,District of Columbia,DC,61.126,38.904247,-77.016517,11,District of Columbia
12001,Alachua County,FL,875.646,29.67574,-82.357221,12,Florida
12003,Baker County,FL,585.23,30.324442,-82.302284,12,Florida
12005,Bay County,FL,758.622,30.15914,-85.534395,12,Florida
12007,Bradford County,FL,293.966,29.952386,-82.166698,12,Florida
12009,Brevard County,FL,1014.967,28.298311,-80.700333,12,Florida
12011,Broward County,FL,1202.9,26.193535,-80.476683,12,Florida
12013,Calhoun County,FL,567.336,30.388801,-85.197915,12,Florida
12015,Charlotte County,FL,681.117,26.906396,-82.003657,12,Florida
12017,Citrus County,FL,581.934,28.850292,-82.595552,12,Florida
12019,Clay County,FL,604.598,29.986584,-81.865036,12,Florida
12021,Collier County,FL,1996.995,26.118786,-81.400955,12,Florida
12023,Columbia County,FL,797.377,30.221651,-82.623371,12,Florida
12027,DeSoto County,FL,636.695,27.190581,-81.806253,12,Florida
12029,Dixie County,FL,705.035,29.552675,-83.236232,12,Florida
12031,Duval County,FL,762.623,30.335245,-81.648113,12,Florida
12033,Escambia County,FL,656.997,30.529998,-87.320322,12,Florida
12035,Flagler County,FL,486.191,29.474891,-81.286253,12,Florida
12037,Franklin County,FL,544.999,29.677794,-84.815213,12,Florida
12039,Gadsden County,FL,516.375,30.578687,-84.612607,12,Florida
12041,Gilchrist County,FL,349.695,29.723456,-82.795801,12,Florida
12043,Glades County,FL,806.822,26.95481,-81.19082,12,Florida
12045,Gulf County,FL,553.467,29.859238,-85.272013,12,Florida
12047,Hamilton County,FL,514.295,30.498438,-82.951116,12,Florida
12049,Hardee County,FL,637.569,27.492846,-81.82158,12,Florida
12051,Hendry County,FL,1155.95,26.539967,-81.152114,12,Florida
12053,Hernando County,FL,472.967,28.555995,-82.525969,12,Florida
12055,Highlands County,FL,1017.664,27.34108,-81.342353,12,Florida
12057,Hillsborough County,FL,1022.537,27.893154,-82.379991,12,Florida
12059,Holmes County,FL,478.858,30.862007,-85.815939,12,Florida
12061,Indian River County,FL,502.553,27.700528,-80.574789,12,Florida
12063,Jackson County,FL,918.238,30.789249,-85.208814,12,Florida
12065,Jefferson County,FL,598.079,30.396898,-83.921761,12,Florida
12067,Lafayette County,FL,543.345,29.990066,-83.17851,12,Florida
12069,Lake County,FL,952.139,28.764113,-81.712282,12,Florida
12071,Lee County,FL,781.154,26.563273,-81.984182,12,Florida
12073,Leon County,FL,668.428,30.45931,-84.2778,12,Florida
12075,Levy County,FL,1118.255,29.271854,-82.831233,12,Florida
12077,Liberty County,FL,835.563,30.259849,-84.86858,12,Florida
12079,Madison County,FL,696.529,30.447233,-83.470416,12,Florida
12081,Manatee County,FL,742.762,27.475556,-82.393144,12,Florida
12083,Marion County,FL,1588.434,29.202805,-82.0431,12,Florida
12085,Martin County,FL,543.823,27.083604,-80.398201,12,Florida
12086,Miami-Dade County,FL,1899.954,25.616009,-80.50375,12,Florida
12087,Monroe County,FL,983.034,25.58612,-81.022603,12,Florida
12089,Nassau County,FL,648.681,30.605963,-81.765087,12,Florida
12091,Okaloosa County,FL,929.826,30.614325,-86.59108,12,Florida
12093,Okeechobee County,FL,769.286,27.385592,-80.887388,12,Florida
12095,Orange County,FL,903.032,28.514391,-81.323284,12,Florida
12097,Osceola County,FL,1327.5,28.059027,-81.139312,12,Florida
12099,Palm Beach County,FL,1964.32,26.649126,-80.448354,12,Florida
12101,Pasco County,FL,746.606,28.309823,-82.511006,12,Florida
12103,Pinellas County,FL,273.789,27.905342,-82.798066,12,Florida
12105,Polk County,FL,1798.235,27.953686,-81.693493,12,Florida
12107,Putnam County,FL,728.392,29.593896,-81.732039,12,Florida
12109,St. Johns County,FL,600.645,29.890487,-81.40004,12,Florida
12111,St. Lucie County,FL,571.874,27.379814,-80.443536,12,Florida
12113,Santa Rosa County,FL,1012.402,30.675348,-87.018919,12,Florida
12115,Sarasota County,FL,556.026,27.225329,-82.423714,12,Florida
12117,Seminole County,FL,309.368,28.690065,-81.131975,12,Florida
12119,Sumter County,FL,557.144,28.713326,-82.069522,12,Florida
12121,Suwannee County,FL,688.586,30.189244,-82.992754,12,Florida
12123,Taylor County,FL,1043.337,29.967146,-83.639573,12,Florida
12125,Union County,FL,243.555,30.05428,-82.366918,12,Florida
12127,Volusia County,FL,1101.116,29.057769,-81.161792,12,Florida
12129,Wakulla County,FL,606.418,30.091335,-84.359111,12,Florida
12131,Walton County,FL,1038.304,30.571247,-86.162798,12,Florida
12133,Washington County,FL,584.677,30.602102,-85.655805,12,Florida
13001,Appling County,GA,508.263,31.739726,-82.290102,13,Georgia
13003,Atkinson County,GA,342.721,31.296806,-82.878151,13,Georgia
13005,Bacon County,GA,284.085,31.55021,-82.451433,13,Georgia
13007,Baker County,GA,341.957,31.31958,-84.454881,13,Georgia
13009,Baldwin County,GA,258.699,33.05949,-83.255457,13,Georgia
13011,Banks County,GA,232.657,34.351922,-83.498441,13,Georgia
13013,Barrow County,GA,161.052,33.992009,-83.712303,13,Georgia
13015,Bartow County,GA,458.912,34.240917,-84.838188,13,Georgia
13017,Ben Hill County,GA,250.118,31.740772,-83.147197,13,Georgia
13019,Berrien County,GA,453.376,31.288652,-83.22787,13,Georgia
13021,Bibb County,GA,249.383,32.80899,-83.69406,13,Georgia
13023,Bleckley County,GA,215.878,32.435403,-83.331717,13,Georgia
13025,Brantley County,GA,443.235,31.197334,-81.982978,13,Georgia
13027,Brooks County,GA,493.184,30.822934,-83.581905,13,Georgia
13029,Bryan County,GA,437.564,32.017969,-81.438543,13,Georgia
13031,Bulloch County,GA,675.963,32.394498,-81.741449,13,Georgia
13033,Burke County,GA,827.042,33.060181,-82.000164,13,Georgia
13035,Butts County,GA,183.69,33.290355,-83.958221,13,Georgia
13037,Calhoun County,GA,280.384,31.521279,-84.62629,13,Georgia
13039,Camden County,GA,630.272,30.913358,-81.642019,13,Georgia
13043,Candler County,GA,243.059,32.40395,-82.071266,13,Georgia
13045,Carroll County,GA,499.116,33.582237,-85.080527,13,Georgia
13047,Catoosa County,GA,162.162,34.900212,-85.139385,13,Georgia
13049,Charlton County,GA,780.087,30.779904,-82.139644,13,Georgia
13051,Chatham County,GA,432.719,31.980404,-81.085184,13,Georgia
13053,Chattahoochee County,GA,248.737,32.347445,-84.788021,13,Georgia
13055,Chattooga County,GA,313.327,34.474178,-85.345289,13,Georgia
13057,Cherokee County,GA,420.955,34.244317,-84.475057,13,Georgia
13059,Clarke County,GA,119.3,33.952185,-83.367152,13,Georgia
13061,Clay County,GA,195.404,31.619831,-84.992583,13,Georgia
13063,Clayton County,GA,141.703,33.552242,-84.412973,13,Georgia
13065,Clinch County,GA,815.0,30.917653,-82.702614,13,Georgia
13067,Cobb County,GA,339.69,33.939926,-84.57411,13,Georgia
13069,Coffee County,GA,592.249,31.549245,-82.84494,13,Georgia
13071,Colquitt County,GA,547.067,31.189707,-83.769773,13,Georgia
13073,Columbia County,GA,290.194,33.552075,-82.249608,13,Georgia
13075,Cook County,GA,228.454,31.152516,-83.429445,13,Georgia
13077,Coweta County,GA,440.996,33.352897,-84.762138,13,Georgia
13079,Crawford County,GA,324.914,32.709448,-83.979168,13,Georgia
13081,Crisp County,GA,272.68,31.920268,-83.75653,13,Georgia
13083,Dade County,GA,174.076,34.852424,-85.506201,13,Georgia
13085,Dawson County,GA,210.828,34.442608,-84.173261,13,Georgia
13087,Decatur County,GA,597.239,30.880643,-84.58389,13,Georgia
13089,DeKalb County,GA,267.666,33.770661,-84.226343,13,Georgia
13091,Dodge County,GA,495.969,32.164369,-83.167866,13,Georgia
13093,Dooly County,GA,392.631,32.151995,-83.807167,13,Georgia
13095,Dougherty County,GA,328.644,31.532588,-84.20904,13,Georgia
13097,Douglas County,GA,200.136,33.701242,-84.767314,13,Georgia
13099,Early County,GA,512.6,31.324191,-84.906723,13,Georgia
13101,Echols County,GA,420.407,30.714008,-82.897376,13,Georgia
13103,Effingham County,GA,478.83,32.361688,-81.343355,13,Georgia
13105,Elbert County,GA,351.103,34.116415,-82.841892,13,Georgia
13107,Emanuel County,GA,680.574,32.5912,-82.300195,13,Georgia
13109,Evans County,GA,182.893,32.153083,-81.890153,13,Georgia
13111,Fannin County,GA,387.106,34.866543,-84.317331,13,Georgia
13113,Fayette County,GA,194.695,33.412717,-84.493941,13,Georgia
13115,Floyd County,GA,509.833,34.26369,-85.213685,13,Georgia
13117,Forsyth County,GA,224.617,34.225143,-84.127408,13,Georgia
13119,Franklin County,GA,261.342,34.375266,-83.227532,13,Georgia
13121,Fulton County,GA,526.83,33.790034,-84.468182,13,Georgia
13123,Gilmer County,GA,426.181,34.690523,-84.454811,13,Georgia
13125,Glascock County,GA,143.746,33.227491,-82.606913,13,Georgia
13127,Glynn County,GA,419.623,31.21271,-81.49645,13,Georgia
13129,Gordon County,GA,356.457,34.509667,-84.873862,13,Georgia
13131,Grady County,GA,454.462,30.8759,-84.244965,13,Georgia
13133,Greene County,GA,387.517,33.576704,-83.166625,13,Georgia
13135,Gwinnett County,GA,431.126,33.958756,-84.025735,13,Georgia
13137,Habersham County,GA,276.867,34.634392,-83.525875,13,Georgia
13139,Hall County,GA,392.469,34.317569,-83.8185,13,Georgia
13141,Hancock County,GA,471.067,33.26922,-83.000465,13,Georgia
13143,Haralson County,GA,282.165,33.795165,-85.220063,13,Georgia
13145,Harris County,GA,463.818,32.731549,-84.912432,13,Georgia
13147,Hart County,GA,232.422,34.348733,-82.96329,13,Georgia
13149,Heard County,GA,295.973,33.291347,-85.137886,13,Georgia
13151,Henry County,GA,318.709,33.452947,-84.154021,13,Georgia
13153,Houston County,GA,376.155,32.458147,-83.662309,13,Georgia
13155,Irwin County,GA,354.363,31.604306,-83.277037,13,Georgia
13157,Jackson County,GA,339.698,34.130905,-83.562557,13,Georgia
13159,Jasper County,GA,368.406,33.316981,-83.689151,13,Georgia
13161,Jeff Davis County,GA,330.919,31.811615,-82.636825,13,Georgia
13163,Jefferson County,GA,526.555,33.058176,-82.420004,13,Georgia
13165,Jenkins County,GA,347.378,32.794563,-81.971524,13,Georgia
13167,Johnson County,GA,303.019,32.694584,-82.66397,13,Georgia
13169,Jones County,GA,393.942,33.021664,-83.562196,13,Georgia
13171,Lamar County,GA,183.501,33.07444,-84.146689,13,Georgia
13173,Lanier County,GA,196.538,31.038197,-83.063164,13,Georgia
13175,Laurens County,GA,807.336,32.39322,-82.926317,13,Georgia
13177,Lee County,GA,355.844,31.818419,-84.146681,13,Georgia
13179,Liberty County,GA,516.463,31.807458,-81.457871,13,Georgia
13181,Lincoln County,GA,210.381,33.792151,-82.448299,13,Georgia
13183,Long County,GA,400.399,31.749563,-81.74287,13,Georgia
13185,Lowndes County,GA,497.25,30.833145,-83.268995,13,Georgia
13187,Lumpkin County,GA,282.944,34.56814,-83.998925,13,Georgia
13189,McDuffie County,GA,257.379,33.48061,-82.479572,13,Georgia
13191,McIntosh County,GA,431.347,31.485629,-81.372141,13,Georgia
13193,Macon County,GA,400.662,32.362686,-84.051231,13,Georgia
13195,Madison County,GA,282.324,34.12748,-83.208653,13,Georgia
13197,Marion County,GA,365.721,32.359312,-84.528735,13,Georgia
13199,Meriwether County,GA,500.907,33.029267,-84.667058,13,Georgia
13201,Miller County,GA,282.423,31.162931,-84.730398,13,Georgia
13205,Mitchell County,GA,512.158,31.228997,-84.192038,13,Georgia
13207,Monroe County,GA,396.092,33.018784,-83.921837,13,Georgia
13209,Montgomery County,GA,241.145,32.172108,-82.533349,13,Georgia
13211,Morgan County,GA,347.411,33.598649,-83.499416,13,Georgia
13213,Murray County,GA,344.494,34.797097,-84.73799,13,Georgia
13215,Muscogee County,GA,216.5,32.510191,-84.874946,13,Georgia
13217,Newton County,GA,273.814,33.552751,-83.85136,13,Georgia
13219,Oconee County,GA,184.349,33.834125,-83.437728,13,Georgia
13221,Oglethorpe County,GA,439.062,33.866806,-83.074081,13,Georgia
13223,Paulding County,GA,312.385,33.92103,-84.867169,13,Georgia
13225,Peach County,GA,150.284,32.571324,-83.831978,13,Georgia
13227,Pickens County,GA,232.055,34.456756,-84.490366,13,Georgia
13229,Pierce County,GA,340.464,31.353998,-82.21037,13,Georgia
13231,Pike County,GA,216.086,33.081149,-84.389462,13,Georgia
13233,Polk County,GA,310.34,33.996015,-85.188338,13,Georgia
13235,Pulaski County,GA,249.261,32.238803,-83.481845,13,Georgia
13237,Putnam County,GA,344.682,33.32106,-83.37179,13,Georgia
13239,Quitman County,GA,151.237,31.862938,-85.004798,13,Georgia
13241,Rabun County,GA,370.137,34.883934,-83.40487,13,Georgia
13243,Randolph County,GA,428.236,31.762651,-84.752311,13,Georgia
13245,Richmond County,GA,324.34,33.361486,-82.074998,13,Georgia
13247,Rockdale County,GA,129.819,33.652081,-84.02637,13,Georgia
13249,Schley County,GA,166.909,32.263444,-84.322708,13,Georgia
13251,Screven County,GA,645.821,32.744751,-81.617585,13,Georgia
13253,Seminole County,GA,237.551,30.93396,-84.867685,13,Georgia
13255,Spalding County,GA,195.97,33.262348,-84.284905,13,Georgia
13257,Stephens County,GA,178.862,34.553582,-83.290588,13,Georgia
13259,Stewart County,GA,458.766,32.073225,-84.834912,13,Georgia
13261,Sumter County,GA,482.877,32.042266,-84.204294,13,Georgia
13263,Talbot County,GA,391.377,32.704603,-84.530029,13,Georgia
13265,Taliaferro County,GA,194.607,33.559319,-82.875272,13,Georgia
13267,Tattnall County,GA,480.84,32.043768,-82.059208,13,Georgia
13269,Taylor County,GA,376.686,32.554667,-84.251426,13,Georgia
13271,Telfair County,GA,437.307,31.913641,-82.931063,13,Georgia
13273,Terrell County,GA,335.791,31.777191,-84.439446,13,Georgia
13275,Thomas County,GA,544.633,30.864619,-83.919815,13,Georgia
13277,Tift County,GA,260.89,31.457003,-83.525931,13,Georgia
13279,Toombs County,GA,364.015,32.117753,-82.330597,13,Georgia
13281,Towns County,GA,166.479,34.902529,-83.732264,13,Georgia
13283,Treutlen County,GA,199.431,32.409586,-82.570882,13,Georgia
13285,Troup County,GA,414.015,33.034482,-85.02836,13,Georgia
13287,Turner County,GA,285.417,31.7248,-83.620319,13,Georgia
13289,Twiggs County,GA,359.26,32.665847,-83.425879,13,Georgia
13291,Union County,GA,322.083,34.833333,-83.989257,13,Georgia
13293,Upson County,GA,323.467,32.881837,-84.292283,13,Georgia
13295,Walker County,GA,446.286,34.735802,-85.305456,13,Georgia
13297,Walton County,GA,326.82,33.783887,-83.731829,13,Georgia
13299,Ware County,GA,899.241,31.050881,-82.421507,13,Georgia
13301,Warren County,GA,284.368,33.408381,-82.675685,13,Georgia
13303,Washington County,GA,678.526,32.971843,-82.798112,13,Georgia
13305,Wayne County,GA,641.813,31.547845,-81.912376,13,Georgia
13307,Webster County,GA,209.657,32.046691,-84.553828,13,Georgia
13309,Wheeler County,GA,295.49,32.105258,-82.733849,13,Georgia
13311,White County,GA,240.773,34.644182,-83.743,13,Georgia
13313,Whitfield County,GA,290.445,34.801726,-84.968541,13,Georgia
13315,Wilcox County,GA,377.811,31.96272,-83.438259,13,Georgia
13317,Wilkes County,GA,469.504,33.779031,-82.747921,13,Georgia
13319,Wilkinson County,GA,449.223,32.804266,-83.175512,13,Georgia
13321,Worth County,GA,570.691,31.551773,-83.84996,13,Georgia
15001,Hawaii County,HI,4028.431,19.597764,-155.502443,15,Hawaii
15003,Honolulu County,HI,600.786,21.461365,-158.201974,15,Hawaii
15005,Kalawao County,HI,11.991,21.218764,-156.97401,15,Hawaii
15007,Kauai County,HI,619.84,22.012038,-159.705965,15,Hawaii
15009,Maui County,HI,1161.54,20.855931,-156.60155,15,Hawaii
16001,Ada County,ID,1052.218,43.451476,-116.244376,16,Idaho
16003,Adams County,ID,1362.805,44.876955,-116.461614,16,Idaho
16005,Bannock County,ID,1112.489,42.692921,-112.228982,16,Idaho
16007,Bear Lake County,ID,975.728,42.285892,-111.327517,16,Idaho
16009,Benewah County,ID,776.931,47.218451,-116.633541,16,Idaho
16011,Bingham County,ID,2093.732,43.216357,-112.399206,16,Idaho
16013,Blaine County,ID,2637.738,43.394192,-113.955371,16,Idaho
16015,Boise County,ID,1899.368,43.987275,-115.71511,16,Idaho
16017,Bonner County,ID,1733.229,48.324634,-116.62745,16,Idaho
16019,Bonneville County,ID,1865.96,43.395171,-111.621878,16,Idaho
16021,Boundary County,ID,1268.679,48.773131,-116.524668,16,Idaho
16023,Butte County,ID,2236.487,43.685101,-113.177631,16,Idaho
16025,Camas County,ID,1074.234,43.502552,-114.772135,16,Idaho
16027,Canyon County,ID,587.049,43.625795,-116.709058,16,Idaho
16029,Caribou County,ID,1764.194,42.786072,-111.544273,16,Idaho
16031,Cassia County,ID,2565.61,42.282313,-113.626328,16,Idaho
16033,Clark County,ID,1763.145,44.290218,-112.354613,16,Idaho
16035,Clearwater County,ID,2457.314,46.67257,-115.6535,16,Idaho
16037,Custer County,ID,4922.177,44.273351,-114.252267,16,Idaho
16039,Elmore County,ID,3075.079,43.394698,-115.471205,16,Idaho
16041,Franklin County,ID,663.019,42.173609,-111.822965,16,Idaho
16043,Fremont County,ID,1863.96,44.218091,-111.484429,16,Idaho
16045,Gem County,ID,559.774,44.061473,-116.398784,16,Idaho
16047,Gooding County,ID,729.322,42.973185,-114.82142,16,Idaho
16049,Idaho County,ID,8477.499,45.849644,-115.467337,16,Idaho
16051,Jefferson County,ID,1093.681,43.796965,-112.318588,16,Idaho
16053,Jerome County,ID,597.543,42.691395,-114.262086,16,Idaho
16055,Kootenai County,ID,1237.78,47.675957,-116.695919,16,Idaho
16057,Latah County,ID,1075.867,46.81892,-116.730974,16,Idaho
16059,Lemhi County,ID,4563.695,44.928506,-113.887042,16,Idaho
16061,Lewis County,ID,478.822,46.236328,-116.42376,16,Idaho
16063,Lincoln County,ID,1201.364,42.990782,-114.153089,16,Idaho
16065,Madison County,ID,469.267,43.788614,-111.656993,16,Idaho
16067,Minidoka County,ID,757.227,42.857211,-113.63984,16,Idaho
16069,Nez Perce County,ID,848.32,46.333791,-116.760909,16,Idaho
16071,Oneida County,ID,1198.951,42.183895,-112.520449,16,Idaho
16073,Owyhee County,ID,7668.204,42.572851,-116.18969,16,Idaho
16075,Payette County,ID,406.88,44.00243,-116.750238,16,Idaho
16077,Power County,ID,1403.826,42.694126,-112.844407,16,Idaho
16079,Shoshone County,ID,2637.425,47.347694,-115.885092,16,Idaho
16081,Teton County,ID,449.091,43.760994,-111.211765,16,Idaho
16083,Twin Falls County,ID,1921.714,42.352309,-114.665639,16,Idaho
16085,Valley County,ID,3665.119,44.85596,-115.618061,16,Idaho
16087,Washington County,ID,1452.852,44.448223,-116.797792,16,Idaho
17001,Adams County,IL,855.151,39.986052,-91.194961,17,Illinois
17003,Alexander County,IL,235.394,37.183658,-89.349516,17,Illinois
17005,Bond County,IL,380.336,38.885924,-89.436592,17,Illinois
17007,Boone County,IL,280.749,42.318983,-88.824295,17,Illinois
17009,Brown County,IL,305.727,39.962069,-90.750309,17,Illinois
17011,Bureau County,IL,869.071,41.401304,-89.528377,17,Illinois
17013,Calhoun County,IL,253.829,39.164262,-90.666295,17,Illinois
17015,Carroll County,IL,445.406,42.0709,-89.924189,17,Illinois
17017,Cass County,IL,375.754,39.969202,-90.245704,17,Illinois
17019,Champaign County,IL,996.104,40.138985,-88.196975,17,Illinois
17021,Christian County,IL,709.483,39.545524,-89.279593,17,Illinois
17023,Clark County,IL,501.39,39.332334,-87.791683,17,Illinois
17025,Clay County,IL,468.351,38.746819,-88.482325,17,Illinois
17027,Clinton County,IL,473.941,38.606295,-89.426228,17,Illinois
17029,Coles County,IL,508.272,39.51368,-88.220782,17,Illinois
17031,Cook County,IL,944.924,41.894294,-87.645455,17,Illinois
17033,Crawford County,IL,443.643,39.002787,-87.760619,17,Illinois
17035,Cumberland County,IL,345.944,39.273121,-88.240619,17,Illinois
17037,DeKalb County,IL,631.337,41.894612,-88.768991,17,Illinois
17039,De Witt County,IL,397.561,40.181499,-88.901853,17,Illinois
17041,Douglas County,IL,416.65,39.766078,-88.222866,17,Illinois
17043,DuPage County,IL,327.847,41.852058,-88.086039,17,Illinois
17045,Edgar County,IL,623.324,39.679037,-87.74711,17,Illinois
17047,Edwards County,IL,222.4,38.417095,-88.047941,17,Illinois
17049,Effingham County,IL,478.769,39.047945,-88.592849,17,Illinois
17051,Fayette County,IL,716.443,39.001125,-89.017923,17,Illinois
17053,Ford County,IL,485.597,40.596539,-88.224588,17,Illinois
17055,Franklin County,IL,408.927,37.991852,-88.926321,17,Illinois
17057,Fulton County,IL,865.683,40.46524,-90.202269,17,Illinois
17059,Gallatin County,IL,322.941,37.768677,-88.227964,17,Illinois
17061,Greene County,IL,543.144,39.355439,-90.387682,17,Illinois
17063,Grundy County,IL,418.128,41.29241,-88.401054,17,Illinois
17065,Hamilton County,IL,434.647,38.085227,-88.539009,17,Illinois
17067,Hancock County,IL,793.748,40.401318,-91.168801,17,Illinois
17069,Hardin County,IL,177.389,37.517852,-88.266148,17,Illinois
17071,Henderson County,IL,378.793,40.814471,-90.941246,17,Illinois
17073,Henry County,IL,823.061,41.350021,-90.130838,17,Illinois
17075,Iroquois County,IL,1117.395,40.748867,-87.833601,17,Illinois
17077,Jackson County,IL,583.57,37.786096,-89.381212,17,Illinois
17079,Jasper County,IL,494.614,39.004886,-88.150725,17,Illinois
17081,Jefferson County,IL,571.235,38.30078,-88.92421,17,Illinois
17083,Jersey County,IL,369.556,39.080195,-90.361385,17,Illinois
17085,Jo Daviess County,IL,600.924,42.362391,-90.21147,17,Illinois
17087,Johnson County,IL,343.737,37.460709,-88.882131,17,Illinois
17089,Kane County,IL,519.272,41.939594,-88.42804,17,Illinois
17091,Kankakee County,IL,676.49,41.13951,-87.861117,17,Illinois
17093,Kendall County,IL,320.238,41.58814,-88.430626,17,Illinois
17095,Knox County,IL,716.355,40.930945,-90.213792,17,Illinois
17097,Lake County,IL,443.679,42.185968,-87.805939,17,Illinois
17099,LaSalle County,IL,1135.138,41.343341,-88.885931,17,Illinois
17101,Lawrence County,IL,372.179,38.718954,-87.730221,17,Illinois
17103,Lee County,IL,724.769,41.747447,-89.299362,17,Illinois
17105,Livingston County,IL,1043.628,40.894376,-88.552852,17,Illinois
17107,Logan County,IL,618.052,40.129277,-89.365309,17,Illinois
17109,McDonough County,IL,589.305,40.455808,-90.678954,17,Illinois
17111,McHenry County,IL,603.397,42.324298,-88.452245,17,Illinois
17113,McLean County,IL,1183.248,40.494559,-88.844539,17,Illinois
17115,Macon County,IL,580.548,39.860237,-88.961529,17,Illinois
17117,Macoupin County,IL,862.974,39.265914,-89.92633,17,Illinois
17119,Madison County,IL,715.519,38.82712,-89.900227,17,Illinois
17121,Marion County,IL,572.538,38.648236,-88.920362,17,Illinois
17123,Marshall County,IL,386.822,41.031119,-89.342371,17,Illinois
17125,Mason County,IL,539.352,40.236993,-89.913575,17,Illinois
17127,Massac County,IL,237.151,37.216119,-88.705658,17,Illinois
17129,Menard County,IL,314.391,40.022569,-89.794133,17,Illinois
17131,Mercer County,IL,561.24,41.205605,-90.74177,17,Illinois
17133,Monroe County,IL,385.301,38.277983,-90.179078,17,Illinois
17135,Montgomery County,IL,703.766,39.228068,-89.478141,17,Illinois
17137,Morgan County,IL,568.959,39.717657,-90.204993,17,Illinois
17139,Moultrie County,IL,335.958,39.636896,-88.625726,17,Illinois
17141,Ogle County,IL,758.654,42.041884,-89.320176,17,Illinois
17143,Peoria County,IL,618.695,40.785972,-89.766993,17,Illinois
17145,Perry County,IL,441.928,38.084381,-89.368525,17,Illinois
17147,Piatt County,IL,439.188,40.009033,-88.592355,17,Illinois
17149,Pike County,IL,831.352,39.625106,-90.889034,17,Illinois
17151,Pope County,IL,368.867,37.417169,-88.542374,17,Illinois
17153,Pulaski County,IL,199.268,37.215615,-89.127755,17,Illinois
17155,Putnam County,IL,160.097,41.198961,-89.298347,17,Illinois
17157,Randolph County,IL,575.367,38.056515,-89.82121,17,Illinois
17159,Richland County,IL,360.034,38.712187,-88.085452,17,Illinois
17161,Rock Island County,IL,427.496,41.468421,-90.572125,17,Illinois
17163,St. Clair County,IL,657.748,38.470198,-89.928546,17,Illinois
17165,Saline County,IL,379.996,37.751508,-88.545024,17,Illinois
17167,Sangamon County,IL,868.23,39.756886,-89.662435,17,Illinois
17169,Schuyler County,IL,437.3,40.156905,-90.613464,17,Illinois
17171,Scott County,IL,250.79,39.637002,-90.477771,17,Illinois
17173,Shelby County,IL,758.508,39.384917,-88.798865,17,Illinois
17175,Stark County,IL,288.106,41.096908,-89.797411,17,Illinois
17177,Stephenson County,IL,564.247,42.349726,-89.665994,17,Illinois
17179,Tazewell County,IL,646.469,40.508074,-89.51626,17,Illinois
17181,Union County,IL,413.412,37.485652,-89.244639,17,Illinois
17183,Vermilion County,IL,898.32,40.186754,-87.726778,17,Illinois
17185,Wabash County,IL,223.323,38.445821,-87.839167,17,Illinois
17187,Warren County,IL,542.322,40.850441,-90.620223,17,Illinois
17189,Washington County,IL,562.597,38.35314,-89.417187,17,Illinois
17191,Wayne County,IL,713.833,38.431857,-88.43243,17,Illinois
17193,White County,IL,494.983,38.087326,-88.178623,17,Illinois
17195,Whiteside County,IL,684.099,41.750673,-89.911005,17,Illinois
17197,Will County,IL,835.877,41.448474,-87.978456,17,Illinois
17199,Williamson County,IL,420.21,37.730353,-88.930018,17,Illinois
17201,Winnebago County,IL,513.05,42.337396,-89.161205,17,Illinois
17203,Woodford County,IL,527.557,40.789787,-89.210587,17,Illinois
18001,Adams County,IN,338.925,40.74573,-84.936134,18,Indiana
18003,Allen County,IN,657.146,41.091909,-85.071791,18,Indiana
18005,Bartholomew County,IN,406.94,39.205843,-85.897999,18,Indiana
18007,Benton County,IN,406.418,40.600939,-87.314786,18,Indiana
18009,Blackford County,IN,165.082,40.472672,-85.32373,18,Indiana
18011,Boone County,IN,422.882,40.050892,-86.469014,18,Indiana
18013,Brown County,IN,311.987,39.195113,-86.230121,18,Indiana
18015,Carroll County,IN,372.225,40.58498,-86.565141,18,Indiana
18017,Cass County,IN,412.144,40.753799,-86.355168,18,Indiana
18019,Clark County,IN,372.487,38.476217,-85.711122,18,Indiana
18021,Clay County,IN,357.6,39.393928,-87.115858,18,Indiana
18023,Clinton County,IN,405.067,40.305944,-86.477567,18,Indiana
18025,Crawford County,IN,305.613,38.289433,-86.440871,18,Indiana
18027,Daviess County,IN,429.514,38.69609,-87.076943,18,Indiana
18029,Dearborn County,IN,305.087,39.140897,-84.975868,18,Indiana
18031,Decatur County,IN,372.568,39.30598,-85.499831,18,Indiana
18033,DeKalb County,IN,362.834,41.39676,-85.002697,18,Indiana
18035,Delaware County,IN,392.109,40.227543,-85.399262,18,Indiana
18037,Dubois County,IN,427.267,38.373344,-86.873385,18,Indiana
18039,Elkhart County,IN,463.158,41.600693,-85.863986,18,Indiana
18041,Fayette County,IN,215.021,39.639654,-85.185034,18,Indiana
18043,Floyd County,IN,148.486,38.318081,-85.911847,18,Indiana
18045,Fountain County,IN,395.668,40.121237,-87.234872,18,Indiana
18047,Franklin County,IN,384.426,39.409762,-85.066964,18,Indiana
18049,Fulton County,IN,368.393,41.050384,-86.265006,18,Indiana
18051,Gibson County,IN,487.378,38.317398,-87.580523,18,Indiana
18053,Grant County,IN,414.089,40.515758,-85.654946,18,Indiana
18055,Greene County,IN,542.467,39.047147,-87.004771,18,Indiana
18057,Hamilton County,IN,394.388,40.053513,-86.021709,18,Indiana
18059,Hancock County,IN,305.957,39.822529,-85.77315,18,Indiana
18061,Harrison County,IN,484.081,38.186454,-86.103766,18,Indiana
18063,Hendricks County,IN,406.894,39.768963,-86.509908,18,Indiana
18065,Henry County,IN,391.877,39.929591,-85.397363,18,Indiana
18067,Howard County,IN,293.074,40.483537,-86.114118,18,Indiana
18069,Huntington County,IN,382.639,40.826394,-85.478597,18,Indiana
18071,Jackson County,IN,509.978,38.911957,-86.042516,18,Indiana
18073,Jasper County,IN,559.68,41.017688,-87.118814,18,Indiana
18075,Jay County,IN,383.905,40.434956,-85.002331,18,Indiana
18077,Jefferson County,IN,360.699,38.783604,-85.44009,18,Indiana
18079,Jennings County,IN,376.597,38.996229,-85.628103,18,Indiana
18081,Johnson County,IN,320.415,39.496092,-86.094264,18,Indiana
18083,Knox County,IN,515.831,38.688381,-87.420358,18,Indiana
18085,Kosciusko County,IN,531.446,41.244293,-85.861575,18,Indiana
18087,LaGrange County,IN,379.632,41.642462,-85.427845,18,Indiana
18089,Lake County,IN,498.89,41.472247,-87.374337,18,Indiana
18091,LaPorte County,IN,598.288,41.549013,-86.744739,18,Indiana
18093,Lawrence County,IN,449.146,38.839815,-86.48782,18,Indiana
18095,Madison County,IN,451.921,40.166203,-85.722454,18,Indiana
18097,Marion County,IN,395.996,39.782976,-86.135794,18,Indiana
18099,Marshall County,IN,443.618,41.325003,-86.269036,18,Indiana
18101,Martin County,IN,335.761,38.705322,-86.801847,18,Indiana
18103,Miami County,IN,373.842,40.772883,-86.044258,18,Indiana
18105,Monroe County,IN,394.523,39.160729,-86.52331,18,Indiana
18107,Montgomery County,IN,504.652,40.040296,-86.892715,18,Indiana
18109,Morgan County,IN,403.831,39.482646,-86.447457,18,Indiana
18111,Newton County,IN,401.755,40.962399,-87.402172,18,Indiana
18113,Noble County,IN,410.843,41.404679,-85.417271,18,Indiana
18115,Ohio County,IN,86.15,38.940527,-84.964299,18,Indiana
18117,Orange County,IN,398.379,38.547381,-86.489257,18,Indiana
18119,Owen County,IN,385.295,39.317339,-86.838845,18,Indiana
18121,Parke County,IN,444.725,39.77425,-87.19695,18,Indiana
18123,Perry County,IN,381.74,38.081436,-86.62654,18,Indiana
18125,Pike County,IN,334.351,38.397961,-87.232547,18,Indiana
18127,Porter County,IN,418.113,41.509914,-87.071313,18,Indiana
18129,Posey County,IN,409.385,38.027614,-87.868653,18,Indiana
18131,Pulaski County,IN,433.678,41.045272,-86.692538,18,Indiana
18133,Putnam County,IN,480.536,39.665548,-86.853373,18,Indiana
18135,Randolph County,IN,452.379,40.164079,-85.00579,18,Indiana
18137,Ripley County,IN,446.431,39.100226,-85.260494,18,Indiana
18139,Rush County,IN,408.137,39.622365,-85.466536,18,Indiana
18141,St. Joseph County,IN,457.781,41.617723,-86.288048,18,Indiana
18143,Scott County,IN,190.403,38.679431,-85.751898,18,Indiana
18145,Shelby County,IN,411.136,39.524135,-85.792174,18,Indiana
18147,Spencer County,IN,396.888,38.009697,-87.010375,18,Indiana
18149,Starke County,IN,309.144,41.284478,-86.644636,18,Indiana
18151,Steuben County,IN,308.782,41.643467,-85.002405,18,Indiana
18153,Sullivan County,IN,447.196,39.089225,-87.415843,18,Indiana
18155,Switzerland County,IN,220.668,38.825854,-85.029681,18,Indiana
18157,Tippecanoe County,IN,498.898,40.389133,-86.893554,18,Indiana
18159,Tipton County,IN,260.541,40.310229,-86.056207,18,Indiana
18161,Union County,IN,161.191,39.623094,-84.925145,18,Indiana
18163,Vanderburgh County,IN,233.402,38.02007,-87.586166,18,Indiana
18165,Vermillion County,IN,256.894,39.854045,-87.462071,18,Indiana
18167,Vigo County,IN,403.631,39.430874,-87.390989,18,Indiana
18169,Wabash County,IN,412.539,40.843747,-85.795192,18,Indiana
18171,Warren County,IN,364.69,40.352498,-87.375163,18,Indiana
18173,Warrick County,IN,384.63,38.097728,-87.272049,18,Indiana
18175,Washington County,IN,513.689,38.600613,-86.104751,18,Indiana
18177,Wayne County,IN,401.755,39.863091,-85.006735,18,Indiana
18179,Wells County,IN,368.087,40.735547,-85.213349,18,Indiana
18181,White County,IN,505.14,40.75095,-86.864293,18,Indiana
18183,Whitley County,IN,335.622,41.136426,-85.501892,18,Indiana
19001,Adair County,IA,569.271,41.328528,-94.478164,19,Iowa
19003,Adams County,IA,423.433,41.021656,-94.696906,19,Iowa
19005,Allamakee County,IA,639.071,43.274964,-91.382751,19,Iowa
19007,Appanoose County,IA,497.299,40.744249,-92.873062,19,Iowa
19009,Audubon County,IA,442.96,41.679178,-94.904312,19,Iowa
19011,Benton County,IA,716.102,42.092547,-92.05763,19,Iowa
19013,Black Hawk County,IA,565.773,42.471132,-92.3076,19,Iowa
19015,Boone County,IA,570.461,42.038623,-93.938605,19,Iowa
19017,Bremer County,IA,435.479,42.780895,-92.327356,19,Iowa
19019,Buchanan County,IA,571.084,42.470328,-91.838666,19,Iowa
19021,Buena Vista County,IA,574.899,42.741522,-95.141432,19,Iowa
19023,Butler County,IA,580.138,42.734757,-92.780153,19,Iowa
19025,Calhoun County,IA,569.846,42.386061,-94.643602,19,Iowa
19027,Carroll County,IA,569.453,42.039502,-94.86765,19,Iowa
19029,Cass County,IA,564.258,41.333824,-94.933302,19,Iowa
19031,Cedar County,IA,579.462,41.77236,-91.132611,19,Iowa
19033,Cerro Gordo County,IA,568.302,43.074975,-93.250965,19,Iowa
19035,Cherokee County,IA,576.907,42.742737,-95.633262,19,Iowa
19037,Chickasaw County,IA,504.324,43.059741,-92.31721,19,Iowa
19039,Clarke County,IA,431.111,41.029726,-93.785259,19,Iowa
19041,Clay County,IA,567.238,43.081224,-95.149875,19,Iowa
19043,Clayton County,IA,778.464,42.840985,-91.323576,19,Iowa
19045,Clinton County,IA,694.959,41.898073,-90.534243,19,Iowa
19047,Crawford County,IA,714.198,42.043119,-95.38909,19,Iowa
19049,Dallas County,IA,588.23,41.68532,-94.040706,19,Iowa
19051,Davis County,IA,502.188,40.748089,-92.410345,19,Iowa
19053,Decatur County,IA,531.883,40.736379,-93.78458,19,Iowa
19055,Delaware County,IA,577.684,42.473014,-91.366767,19,Iowa
19057,Des Moines County,IA,416.129,40.915339,-91.186925,19,Iowa
19059,Dickinson County,IA,380.532,43.389611,-95.196057,19,Iowa
19061,Dubuque County,IA,608.299,42.463481,-90.878771,19,Iowa
19063,Emmet County,IA,395.89,43.377984,-94.66937,19,Iowa
19065,Fayette County,IA,730.817,42.864122,-91.840376,19,Iowa
19067,Floyd County,IA,500.571,43.052741,-92.787367,19,Iowa
19069,Franklin County,IA,581.972,42.736545,-93.271415,19,Iowa
19071,Fremont County,IA,511.168,40.74259,-95.599182,19,Iowa
19073,Greene County,IA,569.558,42.042513,-94.388727,19,Iowa
19075,Grundy County,IA,501.855,42.403339,-92.790244,19,Iowa
19077,Guthrie County,IA,590.614,41.683573,-94.501272,19,Iowa
19079,Hamilton County,IA,576.731,42.390789,-93.70913,19,Iowa
19081,Hancock County,IA,571.005,43.075411,-93.743697,19,Iowa
19083,Hardin County,IA,569.307,42.390208,-93.241669,19,Iowa
19085,Harrison County,IA,696.874,41.688584,-95.827149,19,Iowa
19087,Henry County,IA,434.288,40.984802,-91.547259,19,Iowa
19089,Howard County,IA,473.247,43.365312,-92.321908,19,Iowa
19091,Humboldt County,IA,434.372,42.782221,-94.202775,19,Iowa
19093,Ida County,IA,431.513,42.39186,-95.507421,19,Iowa
19095,Iowa County,IA,586.455,41.683918,-92.059123,19,Iowa
19097,Jackson County,IA,636.047,42.164226,-90.574582,19,Iowa
19099,Jasper County,IA,730.428,41.685551,-93.054147,19,Iowa
19101,Jefferson County,IA,435.524,41.006376,-91.966628,19,Iowa
19103,Johnson County,IA,612.997,41.670668,-91.590529,19,Iowa
19105,Jones County,IA,575.618,42.125118,-91.116914,19,Iowa
19107,Keokuk County,IA,579.175,41.331182,-92.167721,19,Iowa
19109,Kossuth County,IA,972.735,43.212336,-94.213971,19,Iowa
19111,Lee County,IA,517.55,40.647588,-91.477157,19,Iowa
19113,Linn County,IA,717.013,42.077951,-91.597674,19,Iowa
19115,Louisa County,IA,401.777,41.218211,-91.256994,19,Iowa
19117,Lucas County,IA,430.681,41.033321,-93.331462,19,Iowa
19119,Lyon County,IA,587.609,43.38358,-96.207201,19,Iowa
19121,Madison County,IA,561.006,41.330622,-94.015184,19,Iowa
19123,Mahaska County,IA,570.851,41.330797,-92.636366,19,Iowa
19125,Marion County,IA,554.49,41.331433,-93.093868,19,Iowa
19127,Marshall County,IA,572.503,42.0417,-92.981403,19,Iowa
19129,Mills County,IA,437.431,41.033703,-95.619101,19,Iowa
19131,Mitchell County,IA,469.256,43.348564,-92.784466,19,Iowa
19133,Monona County,IA,694.072,42.049432,-95.956566,19,Iowa
19135,Monroe County,IA,433.708,41.028847,-92.869642,19,Iowa
19137,Montgomery County,IA,424.097,41.021735,-95.15779,19,Iowa
19139,Muscatine County,IA,437.44,41.483776,-91.118699,19,Iowa
19141,O'Brien County,IA,573.035,43.083746,-95.625624,19,Iowa
19143,Osceola County,IA,398.687,43.378542,-95.633788,19,Iowa
19145,Page County,IA,534.944,40.739097,-95.144301,19,Iowa
19147,Palo Alto County,IA,563.864,43.075337,-94.669055,19,Iowa
19149,Plymouth County,IA,862.828,42.737615,-96.215973,19,Iowa
19151,Pocahontas County,IA,577.241,42.734033,-94.678279,19,Iowa
19153,Polk County,IA,572.72,41.684816,-93.568971,19,Iowa
19155,Pottawattamie County,IA,951.274,41.340184,-95.544905,19,Iowa
19157,Poweshiek County,IA,584.932,41.684642,-92.522934,19,Iowa
19159,Ringgold County,IA,535.494,40.735334,-94.244251,19,Iowa
19161,Sac County,IA,575.022,42.387526,-95.105224,19,Iowa
19163,Scott County,IA,458.101,41.642079,-90.622289,19,Iowa
19165,Shelby County,IA,590.776,41.679014,-95.308917,19,Iowa
19167,Sioux County,IA,767.911,43.082618,-96.17798,19,Iowa
19169,Story County,IA,572.544,42.037538,-93.466093,19,Iowa
19171,Tama County,IA,721.011,42.074848,-92.529411,19,Iowa
19173,Taylor County,IA,531.902,40.737949,-94.697108,19,Iowa
19175,Union County,IA,423.645,41.02855,-94.245091,19,Iowa
19177,Van Buren County,IA,484.792,40.754117,-91.952943,19,Iowa
19179,Wapello County,IA,431.843,41.031275,-92.409466,19,Iowa
19181,Warren County,IA,569.658,41.332446,-93.568751,19,Iowa
19183,Washington County,IA,568.828,41.329401,-91.725052,19,Iowa
19185,Wayne County,IA,525.469,40.739983,-93.332613,19,Iowa
19187,Webster County,IA,715.704,42.433579,-94.175831,19,Iowa
19189,Winnebago County,IA,400.489,43.378124,-93.743488,19,Iowa
19191,Winneshiek County,IA,689.844,43.292989,-91.850788,19,Iowa
19193,Woodbury County,IA,872.896,42.39322,-96.053296,19,Iowa
19195,Worth County,IA,400.123,43.373491,-93.248533,19,Iowa
19197,Wright County,IA,580.412,42.733007,-93.734735,19,Iowa
20001,Allen County,KS,500.297,37.884228,-95.300945,20,Kansas
20003,Anderson County,KS,579.641,38.215114,-95.292046,20,Kansas
20005,Atchison County,KS,431.174,39.532544,-95.313397,20,Kansas
20007,Barber County,KS,1134.075,37.222906,-98.685052,20,Kansas
20009,Barton County,KS,895.257,38.481239,-98.767837,20,Kansas
20011,Bourbon County,KS,635.461,37.8561,-94.850928,20,Kansas
20013,Brown County,KS,570.871,39.825931,-95.569905,20,Kansas
20015,Butler County,KS,1429.716,37.773649,-96.83884,20,Kansas
20017,Chase County,KS,773.053,38.299475,-96.594029,20,Kansas
20019,Chautauqua County,KS,638.881,37.154259,-96.245396,20,Kansas
20021,Cherokee County,KS,587.567,37.169392,-94.845698,20,Kansas
20023,Cheyenne County,KS,1019.89,39.789901,-101.727317,20,Kansas
20025,Clark County,KS,974.638,37.233831,-99.813869,20,Kansas
20027,Clay County,KS,645.298,39.344964,-97.168853,20,Kansas
20029,Cloud County,KS,715.342,39.487329,-97.64139,20,Kansas
20031,Coffey County,KS,626.885,38.23645,-95.729137,20,Kansas
20033,Comanche County,KS,788.298,37.181442,-99.251293,20,Kansas
20035,Cowley County,KS,1125.738,37.234507,-96.837247,20,Kansas
20037,Crawford County,KS,589.771,37.505821,-94.853897,20,Kansas
20039,Decatur County,KS,893.517,39.783542,-100.459708,20,Kansas
20041,Dickinson County,KS,847.068,38.867735,-97.157943,20,Kansas
20043,Doniphan County,KS,393.475,39.788502,-95.147225,20,Kansas
20045,Douglas County,KS,455.764,38.896417,-95.290947,20,Kansas
20047,Edwards County,KS,621.894,37.883595,-99.304746,20,Kansas
20049,Elk County,KS,644.264,37.456026,-96.244642,20,Kansas
20051,Ellis County,KS,899.934,38.914597,-99.317313,20,Kansas
20053,Ellsworth County,KS,715.575,38.700845,-98.205355,20,Kansas
20055,Finney County,KS,1301.997,38.049808,-100.739967,20,Kansas
20057,Ford County,KS,1098.271,37.68851,-99.884743,20,Kansas
20059,Franklin County,KS,571.772,38.558019,-95.278962,20,Kansas
20061,Geary County,KS,384.652,39.002139,-96.7681,20,Kansas
20063,Gove County,KS,1071.666,38.917239,-100.48736,20,Kansas
20065,Graham County,KS,898.527,39.354972,-99.879894,20,Kansas
20067,Grant County,KS,574.808,37.547537,-101.299362,20,Kansas
20069,Gray County,KS,868.867,37.744513,-100.451716,20,Kansas
20071,Greeley County,KS,778.404,38.480404,-101.80597,20,Kansas
20073,Greenwood County,KS,1143.304,37.879347,-96.241732,20,Kansas
20075,Hamilton County,KS,996.514,37.995244,-101.793689,20,Kansas
20077,Harper County,KS,801.274,37.188184,-98.06659,20,Kansas
20079,Harvey County,KS,539.756,38.050144,-97.436706,20,Kansas
20081,Haskell County,KS,577.521,37.554979,-100.879952,20,Kansas
20083,Hodgeman County,KS,859.992,38.087493,-99.898407,20,Kansas
20085,Jackson County,KS,656.219,39.411096,-95.794492,20,Kansas
20087,Jefferson County,KS,532.626,39.239644,-95.375314,20,Kansas
20089,Jewell County,KS,909.971,39.777005,-98.222619,20,Kansas
20091,Johnson County,KS,473.62,38.883907,-94.82233,20,Kansas
20093,Kearny County,KS,870.543,37.994461,-101.308136,20,Kansas
20095,Kingman County,KS,863.419,37.552951,-98.144529,20,Kansas
20097,Kiowa County,KS,722.64,37.561231,-99.286539,20,Kansas
20099,Labette County,KS,645.393,37.191468,-95.297473,20,Kansas
20101,Lane County,KS,717.409,38.481286,-100.466185,20,Kansas
20103,Leavenworth County,KS,463.408,39.189511,-95.038977,20,Kansas
20105,Lincoln County,KS,719.4,39.04728,-98.214284,20,Kansas
20107,Linn County,KS,594.081,38.216549,-94.844932,20,Kansas
20109,Logan County,KS,1072.993,38.91327,-101.157402,20,Kansas
20111,Lyon County,KS,847.478,38.455403,-96.161641,20,Kansas
20113,McPherson County,KS,898.285,38.395812,-97.647489,20,Kansas
20115,Marion County,KS,944.299,38.359647,-97.102771,20,Kansas
20117,Marshall County,KS,900.178,39.782709,-96.521243,20,Kansas
20119,Meade County,KS,978.083,37.243886,-100.360094,20,Kansas
20121,Miami County,KS,575.88,38.566772,-94.832963,20,Kansas
20123,Mitchell County,KS,701.792,39.393026,-98.207362,20,Kansas
20125,Montgomery County,KS,643.594,37.189537,-95.742403,20,Kansas
20127,Morris County,KS,695.343,38.688204,-96.651448,20,Kansas
20129,Morton County,KS,729.731,37.185249,-101.809516,20,Kansas
20131,Nemaha County,KS,717.427,39.791043,-96.005381,20,Kansas
20133,Neosho County,KS,571.481,37.564283,-95.315682,20,Kansas
20135,Ness County,KS,1074.739,38.480437,-99.908745,20,Kansas
20137,Norton County,KS,878.044,39.783867,-99.899235,20,Kansas
20139,Osage County,KS,705.506,38.650215,-95.708255,20,Kansas
20141,Osborne County,KS,892.516,39.348261,-98.767942,20,Kansas
20143,Ottawa County,KS,720.73,39.137963,-97.654802,20,Kansas
20145,Pawnee County,KS,754.263,38.181477,-99.234772,20,Kansas
20147,Phillips County,KS,885.871,39.784506,-99.34215,20,Kansas
20149,Pottawatomie County,KS,840.735,39.382187,-96.337113,20,Kansas
20151,Pratt County,KS,735.039,37.647594,-98.74012,20,Kansas
20153,Rawlins County,KS,1069.416,39.786198,-101.076738,20,Kansas
20155,Reno County,KS,1255.308,37.948185,-98.078346,20,Kansas
20157,Republic County,KS,717.377,39.828906,-97.650883,20,Kansas
20159,Rice County,KS,726.235,38.347178,-98.201415,20,Kansas
20161,Riley County,KS,609.66,39.29121,-96.727488,20,Kansas
20163,Rooks County,KS,890.527,39.346006,-99.324492,20,Kansas
20165,Rush County,KS,717.763,38.523596,-99.309184,20,Kansas
20167,Russell County,KS,886.26,38.91604,-98.770949,20,Kansas
20169,Saline County,KS,720.242,38.791804,-97.651478,20,Kansas
20171,Scott County,KS,717.585,38.481877,-100.90636,20,Kansas
20173,Sedgwick County,KS,997.001,37.681045,-97.461054,20,Kansas
20175,Seward County,KS,639.653,37.18096,-100.855257,20,Kansas
20177,Shawnee County,KS,544.012,39.041805,-95.755664,20,Kansas
20179,Sheridan County,KS,895.957,39.350547,-100.441228,20,Kansas
20181,Sherman County,KS,1056.064,39.351352,-101.719859,20,Kansas
20183,Smith County,KS,895.464,39.78466,-98.785429,20,Kansas
20185,Stafford County,KS,792.046,38.03563,-98.719889,20,Kansas
20187,Stanton County,KS,680.352,37.565932,-101.789383,20,Kansas
20189,Stevens County,KS,727.26,37.2017,-101.317268,20,Kansas
20191,Sumner County,KS,1181.668,37.236662,-97.493352,20,Kansas
20193,Thomas County,KS,1074.687,39.357713,-101.083386,20,Kansas
20195,Trego County,KS,889.474,38.921302,-99.865423,20,Kansas
20197,Wabaunsee County,KS,794.336,38.955154,-96.201262,20,Kansas
20199,Wallace County,KS,913.652,38.926626,-101.771103,20,Kansas
20201,Washington County,KS,894.759,39.776714,-97.095611,20,Kansas
20203,Wichita County,KS,718.566,38.481922,-101.347434,20,Kansas
20205,Wilson County,KS,570.423,37.558515,-95.745175,20,Kansas
20207,Woodson County,KS,497.819,37.888193,-95.758469,20,Kansas
20209,Wyandotte County,KS,151.638,39.115384,-94.763087,20,Kansas
21001,Adair County,KY,405.292,37.105559,-85.28138,21,Kentucky
21003,Allen County,KY,343.724,36.75077,-86.192458,21,Kentucky
21005,Anderson County,KY,202.26,38.005396,-84.986417,21,Kentucky
21007,Ballard County,KY,247.095,37.051323,-89.010367,21,Kentucky
21009,Barren County,KY,487.365,36.962805,-85.932108,21,Kentucky
21011,Bath County,KY,277.992,38.152249,-83.737641,21,Kentucky
21013,Bell County,KY,358.999,36.728928,-83.680718,21,Kentucky
21015,Boone County,KY,246.268,38.9589,-84.736371,21,Kentucky
21017,Bourbon County,KY,289.75,38.202562,-84.20986,21,Kentucky
21019,Boyd County,KY,159.866,38.360003,-82.681406,21,Kentucky
21021,Boyle County,KY,180.336,37.618104,-84.868352,21,Kentucky
21023,Bracken County,KY,202.665,38.680365,-84.115235,21,Kentucky
21025,Breathitt County,KY,492.422,37.517807,-83.317158,21,Kentucky
21027,Breckinridge County,KY,569.725,37.777988,-86.432919,21,Kentucky
21029,Bullitt County,KY,297.085,37.969945,-85.702635,21,Kentucky
21031,Butler County,KY,426.112,37.207013,-86.682471,21,Kentucky
21033,Caldwell County,KY,344.835,37.148642,-87.870509,21,Kentucky
21035,Calloway County,KY,384.862,36.620978,-88.274086,21,Kentucky
21037,Campbell County,KY,151.32,38.946981,-84.379583,21,Kentucky
21039,Carlisle County,KY,189.463,36.85718,-88.976614,21,Kentucky
21041,Carroll County,KY,128.7,38.668394,-85.124024,21,Kentucky
21043,Carter County,KY,409.497,38.314094,-83.038988,21,Kentucky
21045,Casey County,KY,444.258,37.321962,-84.92822,21,Kentucky
21047,Christian County,KY,717.66,36.892059,-87.492986,21,Kentucky
21049,Clark County,KY,252.482,37.970314,-84.145115,21,Kentucky
21051,Clay County,KY,469.296,37.164273,-83.715454,21,Kentucky
21053,Clinton County,KY,197.063,36.727258,-85.136098,21,Kentucky
21055,Crittenden County,KY,359.566,37.358149,-88.10501,21,Kentucky
21057,Cumberland County,KY,305.147,36.782372,-85.388484,21,Kentucky
21059,Daviess County,KY,458.398,37.731671,-87.087139,21,Kentucky
21061,Edmonson County,KY,302.806,37.227514,-86.218015,21,Kentucky
21063,Elliott County,KY,234.321,38.116883,-83.096116,21,Kentucky
21065,Estill County,KY,253.081,37.692449,-83.963983,21,Kentucky
21067,Fayette County,KY,283.854,38.040678,-84.458272,21,Kentucky
21069,Fleming County,KY,348.672,38.367848,-83.699205,21,Kentucky
21071,Floyd County,KY,393.3,37.552456,-82.739724,21,Kentucky
21073,Franklin County,KY,207.91,38.234919,-84.868786,21,Kentucky
21075,Fulton County,KY,205.932,36.552511,-89.187659,21,Kentucky
21077,Gallatin County,KY,98.282,38.755663,-84.865143,21,Kentucky
21079,Garrard County,KY,229.925,37.630162,-84.545856,21,Kentucky
21081,Grant County,KY,257.976,38.649167,-84.625924,21,Kentucky
21083,Graves County,KY,551.757,36.723344,-88.649897,21,Kentucky
21085,Grayson County,KY,499.536,37.458577,-86.344011,21,Kentucky
21087,Green County,KY,285.963,37.278065,-85.537925,21,Kentucky
21089,Greenup County,KY,344.455,38.563562,-82.93382,21,Kentucky
21091,Hancock County,KY,187.675,37.843325,-86.792761,21,Kentucky
21093,Hardin County,KY,623.904,37.695836,-85.963183,21,Kentucky
21095,Harlan County,KY,465.83,36.859223,-83.221497,21,Kentucky
21097,Harrison County,KY,306.458,38.444578,-84.334131,21,Kentucky
21099,Hart County,KY,412.67,37.305827,-85.878443,21,Kentucky
21101,Henderson County,KY,436.361,37.792542,-87.572577,21,Kentucky
21103,Henry County,KY,286.251,38.451383,-85.119647,21,Kentucky
21105,Hickman County,KY,242.331,36.675896,-88.972084,21,Kentucky
21107,Hopkins County,KY,542.187,37.31107,-87.542196,21,Kentucky
21109,Jackson County,KY,345.227,37.403458,-84.020576,21,Kentucky
21111,Jefferson County,KY,380.83,38.189532,-85.657624,21,Kentucky
21113,Jessamine County,KY,172.113,37.873291,-84.58396,21,Kentucky
21115,Johnson County,KY,261.966,37.847756,-82.830121,21,Kentucky
21117,Kenton County,KY,160.374,38.930503,-84.533438,21,Kentucky
21119,Knott County,KY,351.524,37.354368,-82.952546,21,Kentucky
21121,Knox County,KY,386.33,36.8885,-83.855551,21,Kentucky
21123,Larue County,KY,261.04,37.544462,-85.696841,21,Kentucky
21125,Laurel County,KY,433.703,37.113268,-84.119395,21,Kentucky
21127,Lawrence County,KY,415.598,38.074453,-82.73829,21,Kentucky
21129,Lee County,KY,208.821,37.608116,-83.719248,21,Kentucky
21131,Leslie County,KY,400.878,37.087846,-83.388617,21,Kentucky
21133,Letcher County,KY,337.934,37.118536,-82.861251,21,Kentucky
21135,Lewis County,KY,482.858,38.535047,-83.370143,21,Kentucky
21137,Lincoln County,KY,332.904,37.457174,-84.658335,21,Kentucky
21139,Livingston County,KY,312.96,37.209517,-88.363426,21,Kentucky
21141,Logan County,KY,552.216,36.859607,-86.881288,21,Kentucky
21143,Lyon County,KY,213.785,37.023976,-88.083391,21,Kentucky
21145,McCracken County,KY,248.786,37.054111,-88.712454,21,Kentucky
21147,McCreary County,KY,426.709,36.731136,-84.491052,21,Kentucky
21149,McLean County,KY,252.525,37.526707,-87.265597,21,Kentucky
21151,Madison County,KY,437.934,37.725511,-84.278362,21,Kentucky
21153,Magoffin County,KY,308.443,37.698983,-83.069721,21,Kentucky
21155,Marion County,KY,343.551,37.552604,-85.268959,21,Kentucky
21157,Marshall County,KY,302.126,36.882017,-88.332752,21,Kentucky
21159,Martin County,KY,229.644,37.796774,-82.506623,21,Kentucky
21161,Mason County,KY,240.127,38.594137,-83.828125,21,Kentucky
21163,Meade County,KY,305.463,37.967476,-86.200863,21,Kentucky
21165,Menifee County,KY,203.538,37.935485,-83.589355,21,Kentucky
21167,Mercer County,KY,249.383,37.812085,-84.879695,21,Kentucky
21169,Metcalfe County,KY,289.651,36.99243,-85.633456,21,Kentucky
21171,Monroe County,KY,329.475,36.714077,-85.713508,21,Kentucky
21173,Montgomery County,KY,197.376,38.038109,-83.912416,21,Kentucky
21175,Morgan County,KY,381.104,37.92294,-83.258944,21,Kentucky
21177,Muhlenberg County,KY,467.28,37.213816,-87.134092,21,Kentucky
21179,Nelson County,KY,418.686,37.80312,-85.465931,21,Kentucky
21181,Nicholas County,KY,195.306,38.338031,-84.026223,21,Kentucky
21183,Ohio County,KY,587.095,37.477859,-86.844871,21,Kentucky
21185,Oldham County,KY,187.294,38.400127,-85.45615,21,Kentucky
21187,Owen County,KY,350.487,38.499395,-84.84159,21,Kentucky
21189,Owsley County,KY,197.402,37.423622,-83.691637,21,Kentucky
21191,Pendleton County,KY,277.148,38.696284,-84.351943,21,Kentucky
21193,Perry County,KY,339.724,37.241282,-83.217772,21,Kentucky
21195,Pike County,KY,786.222,37.486031,-82.410912,21,Kentucky
21197,Powell County,KY,178.962,37.809567,-83.831235,21,Kentucky
21199,Pulaski County,KY,658.1,37.107428,-84.576969,21,Kentucky
21201,Robertson County,KY,99.591,38.513473,-84.06423,21,Kentucky
21203,Rockcastle County,KY,316.567,37.36105,-84.314368,21,Kentucky
21205,Rowan County,KY,279.881,38.204266,-83.428079,21,Kentucky
21207,Russell County,KY,253.26,36.990587,-85.05495,21,Kentucky
21209,Scott County,KY,282.194,38.28571,-84.57834,21,Kentucky
21211,Shelby County,KY,379.79,38.239011,-85.228247,21,Kentucky
21213,Simpson County,KY,234.175,36.740929,-86.581787,21,Kentucky
21215,Spencer County,KY,186.671,38.025313,-85.317312,21,Kentucky
21217,Taylor County,KY,266.414,37.36621,-85.328059,21,Kentucky
21219,Todd County,KY,374.513,36.840338,-87.183642,21,Kentucky
21221,Trigg County,KY,441.433,36.807681,-87.858652,21,Kentucky
21223,Trimble County,KY,147.771,38.62004,-85.351208,21,Kentucky
21225,Union County,KY,342.878,37.658029,-87.95165,21,Kentucky
21227,Warren County,KY,541.73,36.995634,-86.423579,21,Kentucky
21229,Washington County,KY,297.284,37.754209,-85.175416,21,Kentucky
21231,Wayne County,KY,458.043,36.800772,-84.82659,21,Kentucky
21233,Webster County,KY,332.026,37.520375,-87.685206,21,Kentucky
21235,Whitley County,KY,437.922,36.758024,-84.144648,21,Kentucky
21237,Wolfe County,KY,222.159,37.743893,-83.49511,21,Kentucky
21239,Woodford County,KY,189.573,38.043103,-84.748855,21,Kentucky
22001,Acadia Parish,LA,655.244,30.291497,-92.411037,22,Louisiana
22003,Allen Parish,LA,762.085,30.652744,-92.819605,22,Louisiana
22005,Ascension Parish,LA,290.003,30.206444,-90.912502,22,Louisiana
22007,Assumption Parish,LA,344.021,29.9033,-91.065219,22,Louisiana
22009,Avoyelles Parish,LA,831.363,31.088503,-91.983275,22,Louisiana
22011,Beauregard Parish,LA,1157.478,30.645018,-93.340253,22,Louisiana
22013,Bienville Parish,LA,811.344,32.340952,-93.041151,22,Louisiana
22015,Bossier Parish,LA,839.621,32.698481,-93.626561,22,Louisiana
22017,Caddo Parish,LA,879.535,32.580106,-93.88497,22,Louisiana
22019,Calcasieu Parish,LA,1064.085,30.229559,-93.358015,22,Louisiana
22021,Caldwell Parish,LA,529.77,32.101219,-92.114231,22,Louisiana
22023,Cameron Parish,LA,1284.639,29.871812,-93.164948,22,Louisiana
22025,Catahoula Parish,LA,709.252,31.666517,-91.846703,22,Louisiana
22027,Claiborne Parish,LA,754.794,32.82716,-92.989728,22,Louisiana
22029,Concordia Parish,LA,695.706,31.469805,-91.626315,22,Louisiana
22031,De Soto Parish,LA,876.449,32.059248,-93.740797,22,Louisiana
22033,East Baton Rouge Parish,LA,455.502,30.54393,-91.093131,22,Louisiana
22035,East Carroll Parish,LA,420.887,32.73017,-91.234141,22,Louisiana
22037,East Feliciana Parish,LA,453.293,30.839784,-91.043434,22,Louisiana
22039,Evangeline Parish,LA,662.431,30.720693,-92.404086,22,Louisiana
22041,Franklin Parish,LA,624.298,32.139076,-91.672371,22,Louisiana
22043,Grant Parish,LA,643.75,31.597787,-92.561716,22,Louisiana
22045,Iberia Parish,LA,574.74,29.606013,-91.842706,22,Louisiana
22047,Iberville Parish,LA,617.275,30.270658,-91.36587,22,Louisiana
22049,Jackson Parish,LA,569.468,32.30429,-92.5617,22,Louisiana
22051,Jefferson Parish,LA,300.864,29.5033,-90.036231,22,Louisiana
22053,Jefferson Davis Parish,LA,651.52,30.269529,-92.816221,22,Louisiana
22055,Lafayette Parish,LA,268.827,30.206507,-92.06417,22,Louisiana
22057,Lafourche Parish,LA,1067.793,29.491992,-90.394849,22,Louisiana
22059,LaSalle Parish,LA,624.854,31.680083,-92.161596,22,Louisiana
22061,Lincoln Parish,LA,471.636,32.601823,-92.662303,22,Louisiana
22063,Livingston Parish,LA,648.131,30.440419,-90.727474,22,Louisiana
22065,Madison Parish,LA,623.885,32.346878,-91.231932,22,Louisiana
22067,Morehouse Parish,LA,794.95,32.820008,-91.800399,22,Louisiana
22069,Natchitoches Parish,LA,1253.008,31.732509,-93.082546,22,Louisiana
22071,Orleans Parish,LA,169.5,30.05342,-89.934502,22,Louisiana
22073,Ouachita Parish,LA,610.35,32.480932,-92.151581,22,Louisiana
22075,Plaquemines Parish,LA,780.595,29.282447,-89.576068,22,Louisiana
22077,Pointe Coupee Parish,LA,555.495,30.708319,-91.604621,22,Louisiana
22079,Rapides Parish,LA,1324.11,31.193204,-92.535953,22,Louisiana
22081,Red River Parish,LA,388.98,32.101213,-93.34905,22,Louisiana
22083,Richland Parish,LA,555.613,32.413158,-91.748353,22,Louisiana
22085,Sabine Parish,LA,866.631,31.560402,-93.559579,22,Louisiana
22087,St. Bernard Parish,LA,377.517,29.91811,-89.263494,22,Louisiana
22089,St. Charles Parish,LA,277.742,29.905722,-90.357855,22,Louisiana
22091,St. Helena Parish,LA,408.527,30.822539,-90.708307,22,Louisiana
22093,St. James Parish,LA,237.861,30.024777,-90.793956,22,Louisiana
22095,St. John the Baptist Parish,LA,214.474,30.144068,-90.49096,22,Louisiana
22097,St. Landry Parish,LA,923.378,30.583441,-91.989274,22,Louisiana
22099,St. Martin Parish,LA,737.549,30.121433,-91.611481,22,Louisiana
22101,St. Mary Parish,LA,558.528,29.629349,-91.463804,22,Louisiana
22103,St. Tammany Parish,LA,845.267,30.410022,-89.951962,22,Louisiana
22105,Tangipahoa Parish,LA,791.18,30.621348,-90.40649,22,Louisiana
22107,Tensas Parish,LA,603.302,32.001489,-91.342576,22,Louisiana
22109,Terrebonne Parish,LA,1229.888,29.33413,-90.843674,22,Louisiana
22111,Union Parish,LA,876.913,32.829349,-92.37565,22,Louisiana
22113,Vermilion Parish,LA,1172.055,29.806638,-92.321394,22,Louisiana
22115,Vernon Parish,LA,1326.728,31.102841,-93.18833,22,Louisiana
22117,Washington Parish,LA,669.637,30.852144,-90.046253,22,Louisiana
22119,Webster Parish,LA,593.319,32.732152,-93.339825,22,Louisiana
22121,West Baton Rouge Parish,LA,192.346,30.464052,-91.309808,22,Louisiana
22123,West Carroll Parish,LA,359.686,32.79248,-91.451998,22,Louisiana
22125,West Feliciana Parish,LA,403.217,30.873364,-91.421776,22,Louisiana
22127,Winn Parish,LA,950.004,31.941187,-92.641269,22,Louisiana
23001,Androscoggin County,ME,467.954,44.167681,-70.207435,23,Maine
23003,Aroostook County,ME,6671.172,46.709193,-68.612409,23,Maine
23005,Cumberland County,ME,836.198,43.808348,-70.330375,23,Maine
23007,Franklin County,ME,1697.007,44.976724,-70.414935,23,Maine
23009,Hancock County,ME,1587.129,44.564906,-68.370703,23,Maine
23011,Kennebec County,ME,867.471,44.417012,-69.765764,23,Maine
23013,Knox County,ME,364.9,44.042045,-69.038514,23,Maine
23015,Lincoln County,ME,455.867,43.994781,-69.513624,23,Maine
23017,Oxford County,ME,2076.958,44.4945,-70.734421,23,Maine
23019,Penobscot County,ME,3397.186,45.409284,-68.666616,23,Maine
23021,Piscataquis County,ME,3960.847,45.915639,-69.102231,23,Maine
23023,Sagadahoc County,ME,253.979,43.916845,-69.844227,23,Maine
23025,Somerset County,ME,3924.27,45.503646,-69.95611,23,Maine
23027,Waldo County,ME,730.227,44.475023,-69.117429,23,Maine
23029,Washington County,ME,2562.725,44.967009,-67.609354,23,Maine
23031,York County,ME,991.195,43.426019,-70.668425,23,Maine
24001,Allegany County,MD,422.199,39.612313,-78.703104,24,Maryland
24003,Anne Arundel County,MD,414.806,38.991617,-76.560894,24,Maryland
24005,Baltimore County,MD,598.358,39.443167,-76.616569,24,Maryland
24009,Calvert County,MD,213.19,38.522719,-76.529762,24,Maryland
24011,Caroline County,MD,319.442,38.871531,-75.831662,24,Maryland
24013,Carroll County,MD,447.615,39.563328,-77.01533,24,Maryland
24015,Cecil County,MD,346.3,39.562354,-75.941585,24,Maryland
24017,Charles County,MD,457.819,38.472853,-77.015427,24,Maryland
24019,Dorchester County,MD,540.765,38.429196,-76.047433,24,Maryland
24021,Frederick County,MD,660.625,39.470177,-77.397636,24,Maryland
24023,Garrett County,MD,649.077,39.547299,-79.274619,24,Maryland
24025,Harford County,MD,437.125,39.537429,-76.299789,24,Maryland
24027,Howard County,MD,250.95,39.252264,-76.924406,24,Maryland
24029,Kent County,MD,276.939,39.241279,-76.125987,24,Maryland
24031,Montgomery County,MD,493.145,39.137381,-77.203063,24,Maryland
24033,Prince George's County,MD,482.595,38.829278,-76.848188,24,Maryland
24035,Queen Anne's County,MD,371.669,39.040693,-76.082405,24,Maryland
24037,St. Mary's County,MD,358.564,38.223077,-76.534487,24,Maryland
24039,Somerset County,MD,319.749,38.07445,-75.853323,24,Maryland
24041,Talbot County,MD,268.556,38.748349,-76.178476,24,Maryland
24043,Washington County,MD,457.784,39.603621,-77.814671,24,Maryland
24045,Wicomico County,MD,374.427,38.367368,-75.632084,24,Maryland
24047,Worcester County,MD,468.298,38.222133,-75.309931,24,Maryland
24510,Baltimore city,MD,80.946,39.300032,-76.610476,24,Maryland
25001,Barnstable County,MA,394.2,41.706123,-70.164823,25,Massachusetts
25003,Berkshire County,MA,926.874,42.371493,-73.217928,25,Massachusetts
25005,Bristol County,MA,553.113,41.748588,-71.088894,25,Massachusetts
25007,Dukes County,MA,103.202,41.38097,-70.701499,25,Massachusetts
25009,Essex County,MA,492.514,42.642708,-70.864909,25,Massachusetts
25011,Franklin County,MA,699.209,42.584504,-72.591792,25,Massachusetts
25013,Hampden County,MA,617.005,42.136198,-72.635648,25,Massachusetts
25015,Hampshire County,MA,527.236,42.339459,-72.663694,25,Massachusetts
25017,Middlesex County,MA,817.878,42.481718,-71.394916,25,Massachusetts
25019,Nantucket County,MA,46.192,41.293392,-70.102164,25,Massachusetts
25021,Norfolk County,MA,396.103,42.171738,-71.18111,25,Massachusetts
25023,Plymouth County,MA,658.502,41.987196,-70.741942,25,Massachusetts
25025,Suffolk County,MA,58.257,42.338551,-71.018253,25,Massachusetts
25027,Worcester County,MA,1510.678,42.311693,-71.940282,25,Massachusetts
26001,Alcona County,MI,674.655,44.657509,-83.29458,26,Michigan
26003,Alger County,MI,915.034,46.521736,-86.657119,26,Michigan
26005,Allegan County,MI,825.253,42.421251,-86.261403,26,Michigan
26007,Alpena County,MI,571.899,44.894954,-83.426574,26,Michigan
26009,Antrim County,MI,475.679,45.005455,-85.175639,26,Michigan
26011,Arenac County,MI,363.178,44.036833,-83.740675,26,Michigan
26013,Baraga County,MI,898.427,46.695859,-88.36181,26,Michigan
26015,Barry County,MI,553.104,42.582811,-85.31455,26,Michigan
26017,Bay County,MI,442.409,43.699711,-83.978701,26,Michigan
26019,Benzie County,MI,319.697,44.636844,-86.231999,26,Michigan
26021,Berrien County,MI,567.795,41.791382,-86.742543,26,Michigan
26023,Branch County,MI,506.411,41.918455,-85.066885,26,Michigan
26025,Calhoun County,MI,706.259,42.24299,-85.012385,26,Michigan
26027,Cass County,MI,490.125,41.917243,-86.000142,26,Michigan
26029,Charlevoix County,MI,416.33,45.618554,-85.543684,26,Michigan
26031,Cheboygan County,MI,715.279,45.476022,-84.495431,26,Michigan
26033,Chippewa County,MI,1558.513,46.321819,-84.52063,26,Michigan
26035,Clare County,MI,564.367,43.991137,-84.838325,26,Michigan
26037,Clinton County,MI,567.349,42.950455,-84.591695,26,Michigan
26039,Crawford County,MI,556.415,44.680175,-84.611343,26,Michigan
26041,Delta County,MI,1171.094,45.805229,-86.901938,26,Michigan
26043,Dickinson County,MI,760.95,46.012833,-87.866139,26,Michigan
26045,Eaton County,MI,575.209,42.58953,-84.84645,26,Michigan
26047,Emmet County,MI,467.546,45.590094,-84.986822,26,Michigan
26049,Genesee County,MI,636.944,43.021077,-83.706372,26,Michigan
26051,Gladwin County,MI,501.787,43.98975,-84.389816,26,Michigan
26053,Gogebic County,MI,1102.136,46.488054,-89.788314,26,Michigan
26055,Grand Traverse County,MI,464.336,44.718688,-85.553848,26,Michigan
26057,Gratiot County,MI,568.383,43.292326,-84.60469,26,Michigan
26059,Hillsdale County,MI,598.152,41.927461,-84.637479,26,Michigan
26061,Houghton County,MI,1009.103,46.998427,-88.651903,26,Michigan
26063,Huron County,MI,836.018,43.907616,-82.857045,26,Michigan
26065,Ingham County,MI,556.081,42.603534,-84.373811,26,Michigan
26067,Ionia County,MI,571.32,42.94465,-85.073766,26,Michigan
26069,Iosco County,MI,549.477,44.386912,-83.380141,26,Michigan
26071,Iron County,MI,1166.096,46.170254,-88.540526,26,Michigan
26073,Isabella County,MI,572.7,43.645233,-84.839424,26,Michigan
26075,Jackson County,MI,701.903,42.248474,-84.420868,26,Michigan
26077,Kalamazoo County,MI,561.959,42.246266,-85.532854,26,Michigan
26079,Kalkaska County,MI,559.744,44.678881,-85.088992,26,Michigan
26081,Kent County,MI,848.931,43.032497,-85.547446,26,Michigan
26083,Keweenaw County,MI,540.112,47.367297,-88.351332,26,Michigan
26085,Lake County,MI,567.595,43.995187,-85.8114,26,Michigan
26087,Lapeer County,MI,646.983,43.088633,-83.224325,26,Michigan
26089,Leelanau County,MI,347.2,45.146182,-86.051574,26,Michigan
26091,Lenawee County,MI,749.638,41.896022,-84.074356,26,Michigan
26093,Livingston County,MI,565.284,42.602532,-83.911718,26,Michigan
26095,Luce County,MI,899.075,46.510988,-85.517552,26,Michigan
26097,Mackinac County,MI,1021.879,46.167868,-85.303762,26,Michigan
26099,Macomb County,MI,479.35,42.671553,-82.911456,26,Michigan
26101,Manistee County,MI,542.325,44.245268,-86.327537,26,Michigan
26103,Marquette County,MI,1809.068,46.656596,-87.584028,26,Michigan
26105,Mason County,MI,494.969,43.957196,-86.442937,26,Michigan
26107,Mecosta County,MI,555.155,43.635295,-85.332751,26,Michigan
26109,Menominee County,MI,1044.041,45.535568,-87.501457,26,Michigan
26111,Midland County,MI,518.434,43.648203,-84.379414,26,Michigan
26113,Missaukee County,MI,564.788,44.325424,-85.085471,26,Michigan
26115,Monroe County,MI,549.362,41.916097,-83.487106,26,Michigan
26117,Montcalm County,MI,705.329,43.312782,-85.149468,26,Michigan
26119,Montmorency County,MI,546.675,45.024134,-84.130107,26,Michigan
26121,Muskegon County,MI,503.914,43.428739,-86.420908,26,Michigan
26123,Newaygo County,MI,838.887,43.562712,-85.791372,26,Michigan
26125,Oakland County,MI,867.399,42.660452,-83.38421,26,Michigan
26127,Oceana County,MI,538.105,43.603954,-86.467177,26,Michigan
26129,Ogemaw County,MI,563.506,44.33328,-84.128073,26,Michigan
26131,Ontonagon County,MI,1310.978,46.835203,-89.276943,26,Michigan
26133,Osceola County,MI,566.286,43.997552,-85.322283,26,Michigan
26135,Oscoda County,MI,565.674,44.687257,-84.126905,26,Michigan
26137,Otsego County,MI,515.006,45.021787,-84.576603,26,Michigan
26139,Ottawa County,MI,563.52,43.054969,-86.219349,26,Michigan
26141,Presque Isle County,MI,658.718,45.252397,-83.432283,26,Michigan
26143,Roscommon County,MI,519.897,44.339517,-84.611271,26,Michigan
26145,Saginaw County,MI,800.807,43.328267,-84.05541,26,Michigan
26147,St. Clair County,MI,721.501,42.928803,-82.668913,26,Michigan
26149,St. Joseph County,MI,500.639,41.911488,-85.52287,26,Michigan
26151,Sanilac County,MI,962.571,43.449155,-82.642815,26,Michigan
26153,Schoolcraft County,MI,1171.876,46.021122,-86.197029,26,Michigan
26155,Shiawassee County,MI,530.967,42.951545,-84.146352,26,Michigan
26157,Tuscola County,MI,804.84,43.487902,-83.436618,26,Michigan
26159,Van Buren County,MI,607.793,42.28215,-86.306076,26,Michigan
26161,Washtenaw County,MI,706.003,42.252217,-83.843423,26,Michigan
26163,Wayne County,MI,611.84,42.284664,-83.261953,26,Michigan
26165,Wexford County,MI,564.924,44.331375,-85.570046,26,Michigan
27001,Aitkin County,MN,1821.317,46.602409,-93.419694,27,Minnesota
27003,Anoka County,MN,421.973,45.27411,-93.242723,27,Minnesota
27005,Becker County,MN,1315.037,46.937629,-95.741757,27,Minnesota
27007,Beltrami County,MN,2504.643,47.879508,-95.00505,27,Minnesota
27009,Benton County,MN,408.303,45.701225,-94.00144,27,Minnesota
27011,Big Stone County,MN,499.129,45.419925,-96.402226,27,Minnesota
27013,Blue Earth County,MN,747.836,44.03371,-94.064012,27,Minnesota
27015,Brown County,MN,611.109,44.246541,-94.733647,27,Minnesota
27017,Carlton County,MN,861.191,46.603818,-92.671044,27,Minnesota
27019,Carver County,MN,353.879,44.82132,-93.800091,27,Minnesota
27021,Cass County,MN,2021.462,46.951745,-94.333705,27,Minnesota
27023,Chippewa County,MN,581.225,45.028625,-95.564108,27,Minnesota
27025,Chisago County,MN,414.901,45.505444,-92.903849,27,Minnesota
27027,Clay County,MN,1045.176,46.898377,-96.494901,27,Minnesota
27029,Clearwater County,MN,999.003,47.575873,-95.371117,27,Minnesota
27031,Cook County,MN,1452.576,47.758556,-90.344319,27,Minnesota
27033,Cottonwood County,MN,639.973,44.010639,-95.183152,27,Minnesota
27035,Crow Wing County,MN,998.41,46.491653,-94.070718,27,Minnesota
27037,Dakota County,MN,562.557,44.670893,-93.062481,27,Minnesota
27039,Dodge County,MN,439.396,44.020706,-92.869353,27,Minnesota
27041,Douglas County,MN,636.878,45.936835,-95.462155,27,Minnesota
27043,Faribault County,MN,712.479,43.676522,-93.947234,27,Minnesota
27045,Fillmore County,MN,861.333,43.679187,-92.093937,27,Minnesota
27047,Freeborn County,MN,707.245,43.674202,-93.350289,27,Minnesota
27049,Goodhue County,MN,756.713,44.406178,-92.716,27,Minnesota
27051,Grant County,MN,547.8,45.930743,-96.010699,27,Minnesota
27053,Hennepin County,MN,554.019,45.006121,-93.475228,27,Minnesota
27055,Houston County,MN,552.115,43.66699,-91.501556,27,Minnesota
27057,Hubbard County,MN,926.021,47.095551,-94.91329,27,Minnesota
27059,Isanti County,MN,435.781,45.562431,-93.296339,27,Minnesota
27061,Itasca County,MN,2667.516,47.490817,-93.611102,27,Minnesota
27063,Jackson County,MN,702.972,43.671111,-95.149731,27,Minnesota
27065,Kanabec County,MN,521.61,45.94776,-93.297788,27,Minnesota
27067,Kandiyohi County,MN,797.368,45.152714,-95.004981,27,Minnesota
27069,Kittson County,MN,1099.0,48.77604,-96.780349,27,Minnesota
27071,Koochiching County,MN,3104.706,48.245374,-93.782896,27,Minnesota
27073,Lac qui Parle County,MN,765.021,44.999826,-96.176851,27,Minnesota
27075,Lake County,MN,2109.108,47.517111,-91.411704,27,Minnesota
27077,Lake of the Woods County,MN,1297.653,48.7681,-94.904633,27,Minnesota
27079,Le Sueur County,MN,448.776,44.373421,-93.730106,27,Minnesota
27081,Lincoln County,MN,536.786,44.408238,-96.272032,27,Minnesota
27083,Lyon County,MN,714.411,44.409195,-95.847268,27,Minnesota
27085,McLeod County,MN,491.51,44.821657,-94.272323,27,Minnesota
27087,Mahnomen County,MN,557.867,47.328387,-95.811089,27,Minnesota
27089,Marshall County,MN,1775.06,48.362728,-96.357761,27,Minnesota
27091,Martin County,MN,712.331,43.677173,-94.547096,27,Minnesota
27093,Meeker County,MN,607.968,45.123155,-94.527346,27,Minnesota
27095,Mille Lacs County,MN,572.306,45.929266,-93.632748,27,Minnesota
27097,Morrison County,MN,1125.094,46.020484,-94.266619,27,Minnesota
27099,Mower County,MN,711.273,43.666249,-92.759514,27,Minnesota
27101,Murray County,MN,704.667,44.015594,-95.761581,27,Minnesota
27103,Nicollet County,MN,448.504,44.35882,-94.245684,27,Minnesota
27105,Nobles County,MN,715.117,43.677686,-95.763132,27,Minnesota
27107,Norman County,MN,872.789,47.329453,-96.463776,27,Minnesota
27109,Olmsted County,MN,653.509,43.9995,-92.410096,27,Minnesota
27111,Otter Tail County,MN,1971.635,46.405727,-95.714581,27,Minnesota
27113,Pennington County,MN,616.52,48.069247,-96.037725,27,Minnesota
27115,Pine County,MN,1411.337,46.10094,-92.763094,27,Minnesota
27117,Pipestone County,MN,465.053,44.015361,-96.257015,27,Minnesota
27119,Polk County,MN,1970.999,47.774254,-96.400027,27,Minnesota
27121,Pope County,MN,674.559,45.589623,-95.446705,27,Minnesota
27123,Ramsey County,MN,152.257,45.015204,-93.099965,27,Minnesota
27125,Red Lake County,MN,432.407,47.865487,-96.08718,27,Minnesota
27127,Redwood County,MN,878.573,44.403536,-95.254241,27,Minnesota
27129,Renville County,MN,982.896,44.723697,-94.955617,27,Minnesota
27131,Rice County,MN,495.845,44.350775,-93.298513,27,Minnesota
27133,Rock County,MN,482.459,43.669587,-96.263238,27,Minnesota
27135,Roseau County,MN,1671.739,48.761068,-95.821504,27,Minnesota
27137,St. Louis County,MN,6248.121,47.578635,-92.514585,27,Minnesota
27139,Scott County,MN,356.11,44.651811,-93.533733,27,Minnesota
27141,Sherburne County,MN,432.948,45.453166,-93.769164,27,Minnesota
27143,Sibley County,MN,588.809,44.575734,-94.230123,27,Minnesota
27145,Stearns County,MN,1342.882,45.555235,-94.610482,27,Minnesota
27147,Steele County,MN,429.548,44.015261,-93.220453,27,Minnesota
27149,Stevens County,MN,563.662,45.593461,-95.992315,27,Minnesota
27151,Swift County,MN,742.016,45.27581,-95.690124,27,Minnesota
27153,Todd County,MN,945.098,46.066569,-94.900576,27,Minnesota
27155,Traverse County,MN,573.872,45.769935,-96.474832,27,Minnesota
27157,Wabasha County,MN,522.933,44.289634,-92.233454,27,Minnesota
27159,Wadena County,MN,536.347,46.586986,-94.988608,27,Minnesota
27161,Waseca County,MN,423.361,44.01846,-93.589844,27,Minnesota
27163,Washington County,MN,384.753,45.037929,-92.890117,27,Minnesota
27165,Watonwan County,MN,434.947,43.978109,-94.613798,27,Minnesota
27167,Wilkin County,MN,751.038,46.362335,-96.476657,27,Minnesota
27169,Winona County,MN,626.191,43.981353,-91.777044,27,Minnesota
27171,Wright County,MN,661.144,45.175091,-93.966396,27,Minnesota
27173,Yellow Medicine County,MN,759.101,44.715736,-95.862756,27,Minnesota
28001,Adams County,MS,462.344,31.486224,-91.351797,28,Mississippi
28003,Alcorn County,MS,400.044,34.886569,-88.581109,28,Mississippi
28005,Amite County,MS,730.1,31.203933,-90.795542,28,Mississippi
28007,Attala County,MS,734.957,33.090468,-89.588622,28,Mississippi
28009,Benton County,MS,406.616,34.809593,-89.200213,28,Mississippi
28011,Bolivar County,MS,876.507,33.799139,-90.88412,28,Mississippi
28013,Calhoun County,MS,586.573,33.936634,-89.337114,28,Mississippi
28015,Carroll County,MS,628.388,33.440795,-89.918887,28,Mississippi
28017,Chickasaw County,MS,501.782,33.933277,-88.947558,28,Mississippi
28019,Choctaw County,MS,418.197,33.345964,-89.251332,28,Mississippi
28021,Claiborne County,MS,487.415,31.97281,-90.915424,28,Mississippi
28023,Clarke County,MS,691.576,32.045374,-88.687976,28,Mississippi
28025,Clay County,MS,410.078,33.65967,-88.782468,28,Mississippi
28027,Coahoma County,MS,553.102,34.230316,-90.60401,28,Mississippi
28029,Copiah County,MS,777.285,31.866915,-90.448758,28,Mississippi
28031,Covington County,MS,413.819,31.633331,-89.548897,28,Mississippi
28033,DeSoto County,MS,476.394,34.874922,-89.991211,28,Mississippi
28035,Forrest County,MS,466.042,31.18858,-89.259447,28,Mississippi
28037,Franklin County,MS,563.964,31.477773,-90.895457,28,Mississippi
28039,George County,MS,478.699,30.855431,-88.642268,28,Mississippi
28041,Greene County,MS,712.738,31.212845,-88.634811,28,Mississippi
28043,Grenada County,MS,422.122,33.770031,-89.80274,28,Mississippi
28045,Hancock County,MS,473.965,30.391641,-89.482791,28,Mississippi
28047,Harrison County,MS,573.636,30.416536,-89.083376,28,Mississippi
28049,Hinds County,MS,869.845,32.267788,-90.466017,28,Mississippi
28051,Holmes County,MS,756.674,33.125942,-90.091197,28,Mississippi
28053,Humphreys County,MS,418.68,33.130996,-90.523421,28,Mississippi
28055,Issaquena County,MS,412.98,32.755539,-91.003535,28,Mississippi
28057,Itawamba County,MS,532.795,34.281075,-88.363127,28,Mississippi
28059,Jackson County,MS,722.825,30.456005,-88.625101,28,Mississippi
28061,Jasper County,MS,676.311,32.016748,-89.119176,28,Mississippi
28063,Jefferson County,MS,519.933,31.733633,-91.043878,28,Mississippi
28065,Jefferson Davis County,MS,408.446,31.564808,-89.827086,28,Mississippi
28067,Jones County,MS,694.845,31.616601,-89.168532,28,Mississippi
28069,Kemper County,MS,766.182,32.750136,-88.625631,28,Mississippi
28071,Lafayette County,MS,631.697,34.353078,-89.485385,28,Mississippi
28073,Lamar County,MS,496.57,31.197586,-89.506369,28,Mississippi
28075,Lauderdale County,MS,703.676,32.404017,-88.660451,28,Mississippi
28077,Lawrence County,MS,430.602,31.550009,-90.10753,28,Mississippi
28079,Leake County,MS,582.897,32.76063,-89.52225,28,Mississippi
28081,Lee County,MS,449.965,34.29237,-88.682439,28,Mississippi
28083,Leflore County,MS,594.074,33.54979,-90.294934,28,Mississippi
28085,Lincoln County,MS,586.207,31.535216,-90.453566,28,Mississippi
28087,Lowndes County,MS,505.472,33.471424,-88.439723,28,Mississippi
28089,Madison County,MS,714.211,32.63437,-90.03416,28,Mississippi
28091,Marion County,MS,542.361,31.23151,-89.822307,28,Mississippi
28093,Marshall County,MS,706.192,34.76619,-89.504231,28,Mississippi
28095,Monroe County,MS,765.163,33.89003,-88.485038,28,Mississippi
28097,Montgomery County,MS,406.981,33.500714,-89.639625,28,Mississippi
28099,Neshoba County,MS,570.134,32.752518,-89.119274,28,Mississippi
28101,Newton County,MS,577.77,32.40197,-89.118412,28,Mississippi
28103,Noxubee County,MS,695.158,33.106606,-88.566152,28,Mississippi
28105,Oktibbeha County,MS,458.239,33.422313,-88.876151,28,Mississippi
28107,Panola County,MS,685.18,34.365205,-89.963065,28,Mississippi
28109,Pearl River County,MS,811.325,30.774793,-89.586904,28,Mississippi
28111,Perry County,MS,647.282,31.169307,-88.988755,28,Mississippi
28113,Pike County,MS,409.185,31.177516,-90.397725,28,Mississippi
28115,Pontotoc County,MS,497.813,34.227081,-89.037239,28,Mississippi
28117,Prentiss County,MS,414.985,34.620566,-88.522184,28,Mississippi
28119,Quitman County,MS,405.012,34.252833,-90.290171,28,Mississippi
28121,Rankin County,MS,775.498,32.267123,-89.946063,28,Mississippi
28123,Scott County,MS,609.231,32.411959,-89.533486,28,Mississippi
28125,Sharkey County,MS,431.72,32.892395,-90.827613,28,Mississippi
28127,Simpson County,MS,589.165,31.902505,-89.917709,28,Mississippi
28129,Smith County,MS,636.268,32.019029,-89.494876,28,Mississippi
28131,Stone County,MS,445.485,30.790184,-89.112297,28,Mississippi
28133,Sunflower County,MS,697.759,33.605529,-90.59509,28,Mississippi
28135,Tallahatchie County,MS,645.59,33.954529,-90.172243,28,Mississippi
28137,Tate County,MS,404.763,34.649553,-89.943105,28,Mississippi
28139,Tippah County,MS,457.822,34.763618,-88.918819,28,Mississippi
28141,Tishomingo County,MS,424.297,34.738835,-88.234827,28,Mississippi
28143,Tunica County,MS,454.13,34.652201,-90.37177,28,Mississippi
28145,Union County,MS,415.607,34.489533,-89.002339,28,Mississippi
28147,Walthall County,MS,403.928,31.164492,-90.103431,28,Mississippi
28149,Warren County,MS,588.536,32.356095,-90.852384,28,Mississippi
28151,Washington County,MS,724.146,33.273174,-90.944446,28,Mississippi
28153,Wayne County,MS,810.716,31.642503,-88.678214,28,Mississippi
28155,Webster County,MS,421.158,33.612061,-89.283961,28,Mississippi
28157,Wilkinson County,MS,678.012,31.161091,-91.324617,28,Mississippi
28159,Winston County,MS,607.251,33.078724,-89.037391,28,Mississippi
28161,Yalobusha County,MS,467.151,34.030666,-89.703807,28,Mississippi
28163,Yazoo County,MS,922.339,32.765675,-90.387928,28,Mississippi
29001,Adair County,MO,567.324,40.190666,-92.603592,29,Missouri
29003,Andrew County,MO,432.634,39.988863,-94.803551,29,Missouri
29005,Atchison County,MO,547.285,40.431846,-95.437555,29,Missouri
29007,Audrain County,MO,692.25,39.214481,-91.843418,29,Missouri
29009,Barry County,MO,778.122,36.699376,-93.834334,29,Missouri
29011,Barton County,MO,592.03,37.500799,-94.344089,29,Missouri
29013,Bates County,MO,836.696,38.257217,-94.339246,29,Missouri
29015,Benton County,MO,704.033,38.301036,-93.287942,29,Missouri
29017,Bollinger County,MO,617.904,37.318427,-90.024645,29,Missouri
29019,Boone County,MO,685.551,38.989861,-92.310202,29,Missouri
29021,Buchanan County,MO,408.249,39.660369,-94.808173,29,Missouri
29023,Butler County,MO,694.754,36.71518,-90.40313,29,Missouri
29025,Caldwell County,MO,426.393,39.658998,-93.979179,29,Missouri
29027,Callaway County,MO,834.565,38.835547,-91.923446,29,Missouri
29029,Camden County,MO,656.036,38.026504,-92.765328,29,Missouri
29031,Cape Girardeau County,MO,578.517,37.384141,-89.685658,29,Missouri
29033,Carroll County,MO,694.622,39.427375,-93.500227,29,Missouri
29035,Carter County,MO,507.359,36.944858,-90.945705,29,Missouri
29037,Cass County,MO,696.615,38.646474,-94.354547,29,Missouri
29039,Cedar County,MO,474.47,37.733655,-93.850014,29,Missouri
29041,Chariton County,MO,751.178,39.517968,-92.96162,29,Missouri
29043,Christian County,MO,562.603,36.969739,-93.187614,29,Missouri
29045,Clark County,MO,504.606,40.407275,-91.729472,29,Missouri
29047,Clay County,MO,397.658,39.315551,-94.421502,29,Missouri
29049,Clinton County,MO,418.94,39.608723,-94.395803,29,Missouri
29051,Cole County,MO,391.532,38.503233,-92.280027,29,Missouri
29053,Cooper County,MO,564.746,38.847093,-92.810069,29,Missouri
29055,Crawford County,MO,742.477,37.966559,-91.313936,29,Missouri
29057,Dade County,MO,490.01,37.43235,-93.854878,29,Missouri
29059,Dallas County,MO,540.951,37.683583,-93.033815,29,Missouri
29061,Daviess County,MO,563.282,39.962839,-93.970053,29,Missouri
29063,DeKalb County,MO,421.358,39.894665,-94.40719,29,Missouri
29065,Dent County,MO,752.761,37.603072,-91.489717,29,Missouri
29067,Douglas County,MO,813.623,36.946517,-92.515892,29,Missouri
29069,Dunklin County,MO,541.909,36.153025,-90.062254,29,Missouri
29071,Franklin County,MO,922.684,38.413003,-91.072832,29,Missouri
29073,Gasconade County,MO,519.005,38.441183,-91.50578,29,Missouri
29075,Gentry County,MO,491.422,40.208127,-94.405321,29,Missouri
29077,Greene County,MO,675.329,37.258196,-93.340641,29,Missouri
29079,Grundy County,MO,435.293,40.112541,-93.565054,29,Missouri
29081,Harrison County,MO,722.517,40.34562,-93.992582,29,Missouri
29083,Henry County,MO,696.936,38.386491,-93.792628,29,Missouri
29085,Hickory County,MO,398.808,37.93691,-93.322988,29,Missouri
29087,Holt County,MO,462.693,40.095724,-95.219072,29,Missouri
29089,Howard County,MO,463.801,39.143365,-92.695926,29,Missouri
29091,Howell County,MO,927.177,36.774369,-91.887368,29,Missouri
29093,Iron County,MO,550.263,37.625971,-90.699587,29,Missouri
29095,Jackson County,MO,604.52,39.005364,-94.343211,29,Missouri
29097,Jasper County,MO,638.506,37.205197,-94.337259,29,Missouri
29099,Jefferson County,MO,656.264,38.25763,-90.543681,29,Missouri
29101,Johnson County,MO,829.262,38.741528,-93.811863,29,Missouri
29103,Knox County,MO,504.01,40.136856,-92.146835,29,Missouri
29105,Laclede County,MO,764.627,37.659698,-92.594843,29,Missouri
29107,Lafayette County,MO,628.284,39.068705,-93.802639,29,Missouri
29109,Lawrence County,MO,611.753,37.106611,-93.830542,29,Missouri
29111,Lewis County,MO,505.018,40.084559,-91.728803,29,Missouri
29113,Lincoln County,MO,626.563,39.062255,-90.962916,29,Missouri
